{"99553":{"lat":54.143,"lng":-165.7854,"city":"Akutan","state":"Alaska"},"99571":{"lat":55.1858,"lng":-162.7211,"city":"Cold Bay","state":"Alaska"},"99583":{"lat":54.8542,"lng":-163.4113,"city":"False Pass","state":"Alaska"},"99612":{"lat":55.0628,"lng":-162.3056,"city":"King Cove","state":"Alaska"},"99661":{"lat":55.3192,"lng":-160.4914,"city":"Sand Point","state":"Alaska"},"99546":{"lat":51.874,"lng":-176.634,"city":"Adak","state":"Alaska"},"99547":{"lat":52.1961,"lng":-174.2006,"city":"Atka","state":"Alaska"},"99591":{"lat":56.5944,"lng":-169.6186,"city":"Saint George Island","state":"Alaska"},"99638":{"lat":52.9381,"lng":-168.8678,"city":"Nikolski","state":"Alaska"},"99660":{"lat":57.1842,"lng":-170.2764,"city":"Saint Paul Island","state":"Alaska"},"99685":{"lat":53.8871,"lng":-166.5199,"city":"Unalaska","state":"Alaska"},"99692":{"lat":53.8898,"lng":-166.5422,"city":"Dutch Harbor","state":"Alaska"},"99501":{"lat":61.2116,"lng":-149.8761,"city":"Anchorage","state":"Alaska"},"99502":{"lat":61.1661,"lng":-149.96,"city":"Anchorage","state":"Alaska"},"99503":{"lat":61.19,"lng":-149.8938,"city":"Anchorage","state":"Alaska"},"99504":{"lat":61.2037,"lng":-149.7447,"city":"Anchorage","state":"Alaska"},"99505":{"lat":59.8666,"lng":-158.5996,"city":"Jber","state":"Alaska"},"99506":{"lat":59.8666,"lng":-158.5996,"city":"Jber","state":"Alaska"},"99507":{"lat":61.1535,"lng":-149.8289,"city":"Anchorage","state":"Alaska"},"99508":{"lat":61.206,"lng":-149.8101,"city":"Anchorage","state":"Alaska"},"99509":{"lat":61.2181,"lng":-149.9003,"city":"Anchorage","state":"Alaska"},"99510":{"lat":61.1446,"lng":-149.8784,"city":"Anchorage","state":"Alaska"},"99511":{"lat":61.0683,"lng":-149.8005,"city":"Anchorage","state":"Alaska"},"99513":{"lat":61.2149,"lng":-149.8862,"city":"Anchorage","state":"Alaska"},"99514":{"lat":61.2181,"lng":-149.9003,"city":"Anchorage","state":"Alaska"},"99515":{"lat":61.1194,"lng":-149.8974,"city":"Anchorage","state":"Alaska"},"99516":{"lat":61.1054,"lng":-149.78,"city":"Anchorage","state":"Alaska"},"99517":{"lat":61.1901,"lng":-149.9361,"city":"Anchorage","state":"Alaska"},"99518":{"lat":61.1549,"lng":-149.8866,"city":"Anchorage","state":"Alaska"},"99519":{"lat":61.1089,"lng":-149.4403,"city":"Anchorage","state":"Alaska"},"99520":{"lat":61.2181,"lng":-149.9003,"city":"Anchorage","state":"Alaska"},"99521":{"lat":61.2181,"lng":-149.9003,"city":"Anchorage","state":"Alaska"},"99522":{"lat":61.2181,"lng":-149.9003,"city":"Anchorage","state":"Alaska"},"99523":{"lat":61.2181,"lng":-149.9003,"city":"Anchorage","state":"Alaska"},"99524":{"lat":61.2181,"lng":-149.9003,"city":"Anchorage","state":"Alaska"},"99529":{"lat":61.1515,"lng":-149.9443,"city":"Anchorage","state":"Alaska"},"99530":{"lat":61.1515,"lng":-149.9443,"city":"Anchorage","state":"Alaska"},"99540":{"lat":61.1089,"lng":-149.4403,"city":"Indian","state":"Alaska"},"99567":{"lat":61.4098,"lng":-149.4537,"city":"Chugiak","state":"Alaska"},"99577":{"lat":61.3114,"lng":-149.5085,"city":"Eagle River","state":"Alaska"},"99587":{"lat":60.9577,"lng":-149.1406,"city":"Girdwood","state":"Alaska"},"99599":{"lat":61.1872,"lng":-149.8804,"city":"Anchorage","state":"Alaska"},"99695":{"lat":61.1089,"lng":-149.4403,"city":"Anchorage","state":"Alaska"},"99545":{"lat":59.9599,"lng":-162.8919,"city":"Kongiganak","state":"Alaska"},"99551":{"lat":60.9094,"lng":-161.4314,"city":"Akiachak","state":"Alaska"},"99552":{"lat":60.9122,"lng":-161.2139,"city":"Akiak","state":"Alaska"},"99557":{"lat":61.5783,"lng":-159.5222,"city":"Aniak","state":"Alaska"},"99559":{"lat":60.7922,"lng":-161.7558,"city":"Bethel","state":"Alaska"},"99561":{"lat":60.1537,"lng":-164.2103,"city":"Chefornak","state":"Alaska"},"99575":{"lat":61.8181,"lng":-158.0025,"city":"Crooked Creek","state":"Alaska"},"99578":{"lat":60.2151,"lng":-162.0323,"city":"Eek","state":"Alaska"},"99589":{"lat":59.1189,"lng":-161.5875,"city":"Goodnews Bay","state":"Alaska"},"99607":{"lat":61.541,"lng":-160.3261,"city":"Kalskag","state":"Alaska"},"99609":{"lat":60.8956,"lng":-162.5181,"city":"Kasigluk","state":"Alaska"},"99614":{"lat":59.9232,"lng":-164.101,"city":"Kipnuk","state":"Alaska"},"99621":{"lat":60.8122,"lng":-161.4358,"city":"Kwethluk","state":"Alaska"},"99622":{"lat":59.8644,"lng":-163.1342,"city":"Kwigillingok","state":"Alaska"},"99626":{"lat":61.5138,"lng":-160.36,"city":"Lower Kalskag","state":"Alaska"},"99630":{"lat":60.3657,"lng":-166.2836,"city":"Mekoryuk","state":"Alaska"},"99634":{"lat":60.6967,"lng":-161.9519,"city":"Napakiak","state":"Alaska"},"99637":{"lat":60.5338,"lng":-165.1037,"city":"Toksook Bay","state":"Alaska"},"99641":{"lat":60.8969,"lng":-162.4594,"city":"Nunapitchuk","state":"Alaska"},"99651":{"lat":59.0131,"lng":-161.8164,"city":"Platinum","state":"Alaska"},"99655":{"lat":59.7381,"lng":-161.8749,"city":"Quinhagak","state":"Alaska"},"99656":{"lat":61.7611,"lng":-157.3125,"city":"Red Devil","state":"Alaska"},"99668":{"lat":61.7025,"lng":-157.1697,"city":"Sleetmute","state":"Alaska"},"99679":{"lat":61.1088,"lng":-160.9389,"city":"Tuluksak","state":"Alaska"},"99680":{"lat":60.3431,"lng":-162.6631,"city":"Tuntutuliak","state":"Alaska"},"99681":{"lat":60.5856,"lng":-165.2558,"city":"Tununak","state":"Alaska"},"99690":{"lat":60.4794,"lng":-164.7239,"city":"Nightmute","state":"Alaska"},"99613":{"lat":58.6883,"lng":-156.6614,"city":"King Salmon","state":"Alaska"},"99633":{"lat":58.783,"lng":-156.8992,"city":"Naknek","state":"Alaska"},"99670":{"lat":58.6639,"lng":-156.9756,"city":"South Naknek","state":"Alaska"},"99574":{"lat":60.5362,"lng":-145.7534,"city":"Cordova","state":"Alaska"},"99677":{"lat":60.8906,"lng":-146.6703,"city":"Tatitlek","state":"Alaska"},"99686":{"lat":61.101,"lng":-146.9,"city":"Valdez","state":"Alaska"},"99693":{"lat":60.7734,"lng":-148.6839,"city":"Whittier","state":"Alaska"},"99566":{"lat":61.5156,"lng":-144.4396,"city":"Chitina","state":"Alaska"},"99573":{"lat":61.977,"lng":-145.3297,"city":"Copper Center","state":"Alaska"},"99586":{"lat":62.3014,"lng":-145.3027,"city":"Gakona","state":"Alaska"},"99588":{"lat":62.1039,"lng":-145.6617,"city":"Glennallen","state":"Alaska"},"99704":{"lat":64.2966,"lng":-149.1608,"city":"Clear","state":"Alaska"},"99729":{"lat":63.3955,"lng":-148.8973,"city":"Cantwell","state":"Alaska"},"99743":{"lat":63.9171,"lng":-149.0111,"city":"Healy","state":"Alaska"},"99744":{"lat":64.3442,"lng":-149.1869,"city":"Anderson","state":"Alaska"},"99755":{"lat":63.5436,"lng":-149.9867,"city":"Denali National Park","state":"Alaska"},"99555":{"lat":59.2697,"lng":-158.6199,"city":"Aleknagik","state":"Alaska"},"99569":{"lat":58.8173,"lng":-158.5299,"city":"Clarks Point","state":"Alaska"},"99576":{"lat":59.0402,"lng":-158.5231,"city":"Dillingham","state":"Alaska"},"99580":{"lat":59.3628,"lng":-157.4782,"city":"Ekwok","state":"Alaska"},"99628":{"lat":59.0096,"lng":-158.9897,"city":"Manokotak","state":"Alaska"},"99636":{"lat":59.4882,"lng":-157.2905,"city":"New Stuyahok","state":"Alaska"},"99678":{"lat":59.0619,"lng":-160.3764,"city":"Togiak","state":"Alaska"},"99701":{"lat":64.8378,"lng":-147.7164,"city":"Fairbanks","state":"Alaska"},"99702":{"lat":64.6735,"lng":-147.0805,"city":"Eielson Afb","state":"Alaska"},"99703":{"lat":64.8283,"lng":-147.6557,"city":"Fort Wainwright","state":"Alaska"},"99705":{"lat":64.7805,"lng":-147.3694,"city":"North Pole","state":"Alaska"},"99706":{"lat":64.8521,"lng":-147.9377,"city":"Fairbanks","state":"Alaska"},"99707":{"lat":64.8378,"lng":-147.7164,"city":"Fairbanks","state":"Alaska"},"99708":{"lat":64.9475,"lng":-147.8564,"city":"Fairbanks","state":"Alaska"},"99709":{"lat":64.8544,"lng":-147.8469,"city":"Fairbanks","state":"Alaska"},"99710":{"lat":64.8378,"lng":-147.7164,"city":"Fairbanks","state":"Alaska"},"99711":{"lat":64.8378,"lng":-147.7164,"city":"Fairbanks","state":"Alaska"},"99712":{"lat":64.9109,"lng":-147.5105,"city":"Fairbanks","state":"Alaska"},"99714":{"lat":64.5091,"lng":-146.953,"city":"Salcha","state":"Alaska"},"99716":{"lat":64.8746,"lng":-146.8982,"city":"Two Rivers","state":"Alaska"},"99725":{"lat":64.871,"lng":-148.0949,"city":"Ester","state":"Alaska"},"99775":{"lat":64.8591,"lng":-147.8267,"city":"Fairbanks","state":"Alaska"},"99790":{"lat":64.8378,"lng":-147.7164,"city":"Fairbanks","state":"Alaska"},"99827":{"lat":59.2519,"lng":-135.542,"city":"Haines","state":"Alaska"},"99820":{"lat":57.5005,"lng":-134.586,"city":"Angoon","state":"Alaska"},"99825":{"lat":58.1944,"lng":-136.3433,"city":"Elfin Cove","state":"Alaska"},"99826":{"lat":58.4284,"lng":-135.7615,"city":"Gustavus","state":"Alaska"},"99829":{"lat":58.0977,"lng":-135.4316,"city":"Hoonah","state":"Alaska"},"99832":{"lat":57.9608,"lng":-136.2275,"city":"Pelican","state":"Alaska"},"99841":{"lat":57.7808,"lng":-135.2189,"city":"Tenakee Springs","state":"Alaska"},"99801":{"lat":58.3628,"lng":-134.5294,"city":"Juneau","state":"Alaska"},"99802":{"lat":58.3019,"lng":-134.4197,"city":"Juneau","state":"Alaska"},"99803":{"lat":58.3019,"lng":-134.4197,"city":"Juneau","state":"Alaska"},"99811":{"lat":58.3019,"lng":-134.4197,"city":"Juneau","state":"Alaska"},"99812":{"lat":58.3271,"lng":-134.4742,"city":"Juneau","state":"Alaska"},"99821":{"lat":58.4494,"lng":-134.7003,"city":"Auke Bay","state":"Alaska"},"99824":{"lat":58.2756,"lng":-134.395,"city":"Douglas","state":"Alaska"},"99850":{"lat":58.3019,"lng":-134.4197,"city":"Juneau","state":"Alaska"},"99556":{"lat":59.8371,"lng":-151.7078,"city":"Anchor Point","state":"Alaska"},"99568":{"lat":60.2311,"lng":-151.3936,"city":"Clam Gulch","state":"Alaska"},"99572":{"lat":60.4767,"lng":-149.8235,"city":"Cooper Landing","state":"Alaska"},"99603":{"lat":59.5374,"lng":-151.2356,"city":"Homer","state":"Alaska"},"99605":{"lat":60.8726,"lng":-149.4683,"city":"Hope","state":"Alaska"},"99610":{"lat":60.3164,"lng":-151.2896,"city":"Kasilof","state":"Alaska"},"99611":{"lat":60.6145,"lng":-151.2546,"city":"Kenai","state":"Alaska"},"99631":{"lat":60.6148,"lng":-149.4056,"city":"Moose Pass","state":"Alaska"},"99635":{"lat":60.7007,"lng":-151.2766,"city":"Nikiski","state":"Alaska"},"99639":{"lat":60.0108,"lng":-151.6396,"city":"Ninilchik","state":"Alaska"},"99663":{"lat":59.4495,"lng":-151.7009,"city":"Seldovia","state":"Alaska"},"99664":{"lat":60.1329,"lng":-149.3985,"city":"Seward","state":"Alaska"},"99669":{"lat":60.4818,"lng":-151.1358,"city":"Soldotna","state":"Alaska"},"99672":{"lat":60.5136,"lng":-150.8532,"city":"Sterling","state":"Alaska"},"99682":{"lat":61.0681,"lng":-151.1369,"city":"Tyonek","state":"Alaska"},"99901":{"lat":55.372,"lng":-131.6832,"city":"Ketchikan","state":"Alaska"},"99928":{"lat":55.3954,"lng":-131.6754,"city":"Ward Cove","state":"Alaska"},"99950":{"lat":55.3422,"lng":-131.6478,"city":"Ketchikan","state":"Alaska"},"99550":{"lat":57.8675,"lng":-152.8822,"city":"Port Lions","state":"Alaska"},"99608":{"lat":57.5689,"lng":-154.4551,"city":"Karluk","state":"Alaska"},"99615":{"lat":57.6036,"lng":-153.3751,"city":"Kodiak","state":"Alaska"},"99619":{"lat":57.79,"lng":-152.4072,"city":"Kodiak","state":"Alaska"},"99624":{"lat":57.54,"lng":-153.9786,"city":"Larsen Bay","state":"Alaska"},"99643":{"lat":57.2028,"lng":-153.3039,"city":"Old Harbor","state":"Alaska"},"99644":{"lat":57.9236,"lng":-152.5022,"city":"Ouzinkie","state":"Alaska"},"99697":{"lat":57.79,"lng":-152.4072,"city":"Kodiak","state":"Alaska"},"99554":{"lat":62.6944,"lng":-164.6475,"city":"Alakanuk","state":"Alaska"},"99563":{"lat":61.529,"lng":-165.5905,"city":"Chevak","state":"Alaska"},"99581":{"lat":62.7818,"lng":-164.5335,"city":"Emmonak","state":"Alaska"},"99585":{"lat":61.9287,"lng":-162.268,"city":"Marshall","state":"Alaska"},"99604":{"lat":61.527,"lng":-166.1151,"city":"Hooper Bay","state":"Alaska"},"99620":{"lat":63.0295,"lng":-163.5542,"city":"Kotlik","state":"Alaska"},"99632":{"lat":62.1123,"lng":-163.6644,"city":"Mountain Village","state":"Alaska"},"99650":{"lat":61.9462,"lng":-162.8747,"city":"Pilot Station","state":"Alaska"},"99657":{"lat":61.7744,"lng":-161.3939,"city":"Russian Mission","state":"Alaska"},"99658":{"lat":62.1172,"lng":-163.2376,"city":"Saint Marys","state":"Alaska"},"99662":{"lat":61.845,"lng":-165.5819,"city":"Scammon Bay","state":"Alaska"},"99666":{"lat":62.5309,"lng":-164.8496,"city":"Nunam Iqua","state":"Alaska"},"99548":{"lat":56.2448,"lng":-158.7578,"city":"Chignik Lake","state":"Alaska"},"99549":{"lat":56.9643,"lng":-158.5664,"city":"Port Heiden","state":"Alaska"},"99564":{"lat":56.3016,"lng":-158.4157,"city":"Chignik","state":"Alaska"},"99565":{"lat":58.2687,"lng":-156.6484,"city":"Chignik Lagoon","state":"Alaska"},"99579":{"lat":58.2062,"lng":-157.3422,"city":"Egegik","state":"Alaska"},"99606":{"lat":59.7525,"lng":-154.8236,"city":"Iliamna","state":"Alaska"},"99625":{"lat":59.2905,"lng":-156.6503,"city":"Levelock","state":"Alaska"},"99640":{"lat":59.9736,"lng":-154.8458,"city":"Nondalton","state":"Alaska"},"99647":{"lat":59.8681,"lng":-154.0757,"city":"Pedro Bay","state":"Alaska"},"99648":{"lat":55.9453,"lng":-159.2593,"city":"Perryville","state":"Alaska"},"99649":{"lat":57.5642,"lng":-157.5792,"city":"Pilot Point","state":"Alaska"},"99653":{"lat":60.2025,"lng":-154.3128,"city":"Port Alsworth","state":"Alaska"},"99623":{"lat":61.5463,"lng":-149.5901,"city":"Wasilla","state":"Alaska"},"99629":{"lat":61.5841,"lng":-149.4436,"city":"Wasilla","state":"Alaska"},"99645":{"lat":61.6303,"lng":-148.9872,"city":"Palmer","state":"Alaska"},"99652":{"lat":61.5214,"lng":-149.9544,"city":"Big Lake","state":"Alaska"},"99654":{"lat":61.5923,"lng":-149.3959,"city":"Wasilla","state":"Alaska"},"99667":{"lat":61.9903,"lng":-151.3978,"city":"Skwentna","state":"Alaska"},"99674":{"lat":61.7327,"lng":-148.7837,"city":"Sutton","state":"Alaska"},"99676":{"lat":62.2605,"lng":-150.1101,"city":"Talkeetna","state":"Alaska"},"99683":{"lat":62.3167,"lng":-150.2314,"city":"Trapper Creek","state":"Alaska"},"99687":{"lat":61.5313,"lng":-149.4784,"city":"Wasilla","state":"Alaska"},"99688":{"lat":61.8966,"lng":-150.0038,"city":"Willow","state":"Alaska"},"99694":{"lat":61.6303,"lng":-149.8181,"city":"Houston","state":"Alaska"},"99659":{"lat":63.4776,"lng":-162.1091,"city":"Saint Michael","state":"Alaska"},"99671":{"lat":63.5222,"lng":-162.2881,"city":"Stebbins","state":"Alaska"},"99684":{"lat":63.8835,"lng":-160.7884,"city":"Unalakleet","state":"Alaska"},"99739":{"lat":64.6217,"lng":-162.2604,"city":"Elim","state":"Alaska"},"99742":{"lat":63.7766,"lng":-171.7017,"city":"Gambell","state":"Alaska"},"99753":{"lat":64.9319,"lng":-161.1569,"city":"Koyuk","state":"Alaska"},"99762":{"lat":64.5011,"lng":-165.4064,"city":"Nome","state":"Alaska"},"99769":{"lat":63.6797,"lng":-170.4709,"city":"Savoonga","state":"Alaska"},"99771":{"lat":64.3537,"lng":-161.1932,"city":"Shaktoolik","state":"Alaska"},"99772":{"lat":66.2306,"lng":-166.1373,"city":"Shishmaref","state":"Alaska"},"99778":{"lat":65.2402,"lng":-166.3833,"city":"Teller","state":"Alaska"},"99783":{"lat":65.6092,"lng":-168.0875,"city":"Wales","state":"Alaska"},"99784":{"lat":64.6814,"lng":-163.4056,"city":"White Mountain","state":"Alaska"},"99785":{"lat":65.3342,"lng":-166.4786,"city":"Brevig Mission","state":"Alaska"},"99721":{"lat":68.1433,"lng":-151.7358,"city":"Anaktuvuk Pass","state":"Alaska"},"99723":{"lat":71.2346,"lng":-156.8174,"city":"Barrow","state":"Alaska"},"99734":{"lat":70.2922,"lng":-148.6694,"city":"Prudhoe Bay","state":"Alaska"},"99747":{"lat":70.1319,"lng":-143.6239,"city":"Kaktovik","state":"Alaska"},"99759":{"lat":69.7439,"lng":-163.0084,"city":"Point Lay","state":"Alaska"},"99766":{"lat":68.3486,"lng":-166.7347,"city":"Point Hope","state":"Alaska"},"99782":{"lat":70.6369,"lng":-160.0383,"city":"Wainwright","state":"Alaska"},"99789":{"lat":70.1927,"lng":-150.9971,"city":"Nuiqsut","state":"Alaska"},"99791":{"lat":70.4947,"lng":-157.4411,"city":"Atqasuk","state":"Alaska"},"99727":{"lat":65.9789,"lng":-161.1262,"city":"Buckland","state":"Alaska"},"99736":{"lat":66.0737,"lng":-162.714,"city":"Deering","state":"Alaska"},"99749":{"lat":66.975,"lng":-160.4228,"city":"Kiana","state":"Alaska"},"99750":{"lat":67.7269,"lng":-164.5333,"city":"Kivalina","state":"Alaska"},"99751":{"lat":66.9072,"lng":-156.8811,"city":"Kobuk","state":"Alaska"},"99752":{"lat":66.8985,"lng":-162.5981,"city":"Kotzebue","state":"Alaska"},"99761":{"lat":67.5711,"lng":-162.9653,"city":"Noatak","state":"Alaska"},"99763":{"lat":66.8364,"lng":-161.0441,"city":"Noorvik","state":"Alaska"},"99770":{"lat":66.6039,"lng":-160.0069,"city":"Selawik","state":"Alaska"},"99773":{"lat":66.8881,"lng":-157.1364,"city":"Shungnak","state":"Alaska"},"99786":{"lat":67.0861,"lng":-157.8514,"city":"Ambler","state":"Alaska"},"99830":{"lat":56.9736,"lng":-133.936,"city":"Kake","state":"Alaska"},"99833":{"lat":56.8271,"lng":-133.1607,"city":"Petersburg","state":"Alaska"},"99836":{"lat":56.2497,"lng":-134.6444,"city":"Port Alexander","state":"Alaska"},"99903":{"lat":55.7408,"lng":-132.2564,"city":"Meyers Chuck","state":"Alaska"},"99918":{"lat":55.9524,"lng":-132.7503,"city":"Coffman Cove","state":"Alaska"},"99919":{"lat":55.6609,"lng":-132.5138,"city":"Thorne Bay","state":"Alaska"},"99921":{"lat":55.4732,"lng":-133.1171,"city":"Craig","state":"Alaska"},"99922":{"lat":55.2087,"lng":-132.8259,"city":"Hydaburg","state":"Alaska"},"99923":{"lat":55.9169,"lng":-130.0247,"city":"Hyder","state":"Alaska"},"99925":{"lat":55.5526,"lng":-133.0555,"city":"Klawock","state":"Alaska"},"99926":{"lat":55.1215,"lng":-131.579,"city":"Metlakatla","state":"Alaska"},"99927":{"lat":56.3528,"lng":-133.6211,"city":"Point Baker","state":"Alaska"},"99835":{"lat":57.0514,"lng":-135.3166,"city":"Sitka","state":"Alaska"},"99840":{"lat":59.4685,"lng":-135.3018,"city":"Skagway","state":"Alaska"},"99689":{"lat":59.812,"lng":-139.5505,"city":"Yakutat","state":"Alaska"},"99731":{"lat":63.952,"lng":-146.451,"city":"Fort Greely","state":"Alaska"},"99732":{"lat":64.0733,"lng":-141.9361,"city":"Chicken","state":"Alaska"},"99737":{"lat":64.0378,"lng":-145.7322,"city":"Delta Junction","state":"Alaska"},"99738":{"lat":64.7881,"lng":-141.2,"city":"Eagle","state":"Alaska"},"99764":{"lat":62.9617,"lng":-141.9372,"city":"Northway","state":"Alaska"},"99776":{"lat":63.3853,"lng":-143.3464,"city":"Tanacross","state":"Alaska"},"99780":{"lat":63.3367,"lng":-142.9856,"city":"Tok","state":"Alaska"},"99929":{"lat":56.4335,"lng":-132.3529,"city":"Wrangell","state":"Alaska"},"99558":{"lat":62.6561,"lng":-160.2067,"city":"Anvik","state":"Alaska"},"99590":{"lat":62.9036,"lng":-160.0647,"city":"Grayling","state":"Alaska"},"99602":{"lat":62.1926,"lng":-159.8251,"city":"Holy Cross","state":"Alaska"},"99627":{"lat":62.9457,"lng":-155.5712,"city":"Mc Grath","state":"Alaska"},"99665":{"lat":62.6822,"lng":-159.5619,"city":"Shageluk","state":"Alaska"},"99675":{"lat":62.9886,"lng":-156.0642,"city":"Takotna","state":"Alaska"},"99691":{"lat":63.0133,"lng":-154.375,"city":"Nikolai","state":"Alaska"},"99720":{"lat":66.5656,"lng":-152.6456,"city":"Allakaket","state":"Alaska"},"99722":{"lat":68.1269,"lng":-145.5378,"city":"Arctic Village","state":"Alaska"},"99724":{"lat":66.3594,"lng":-147.3964,"city":"Beaver","state":"Alaska"},"99726":{"lat":65.2264,"lng":-151.0251,"city":"Bettles Field","state":"Alaska"},"99730":{"lat":65.4681,"lng":-144.7489,"city":"Central","state":"Alaska"},"99733":{"lat":65.8245,"lng":-144.0826,"city":"Circle","state":"Alaska"},"99740":{"lat":66.5647,"lng":-145.2739,"city":"Fort Yukon","state":"Alaska"},"99741":{"lat":64.7333,"lng":-156.9275,"city":"Galena","state":"Alaska"},"99745":{"lat":66.0382,"lng":-154.2644,"city":"Hughes","state":"Alaska"},"99746":{"lat":65.6899,"lng":-156.292,"city":"Huslia","state":"Alaska"},"99748":{"lat":64.3305,"lng":-158.7243,"city":"Kaltag","state":"Alaska"},"99754":{"lat":64.8803,"lng":-157.7008,"city":"Koyukuk","state":"Alaska"},"99756":{"lat":65.0011,"lng":-150.6339,"city":"Manley Hot Springs","state":"Alaska"},"99757":{"lat":63.8828,"lng":-152.3122,"city":"Lake Minchumina","state":"Alaska"},"99758":{"lat":65.0584,"lng":-149.6912,"city":"Minto","state":"Alaska"},"99760":{"lat":64.5577,"lng":-149.0867,"city":"Nenana","state":"Alaska"},"99765":{"lat":64.7194,"lng":-158.1031,"city":"Nulato","state":"Alaska"},"99767":{"lat":65.509,"lng":-150.1619,"city":"Rampart","state":"Alaska"},"99768":{"lat":64.7201,"lng":-155.5039,"city":"Ruby","state":"Alaska"},"99774":{"lat":66.0064,"lng":-149.0908,"city":"Stevens Village","state":"Alaska"},"99777":{"lat":65.1719,"lng":-152.0789,"city":"Tanana","state":"Alaska"},"99781":{"lat":67.0104,"lng":-146.4137,"city":"Venetie","state":"Alaska"},"99788":{"lat":66.6544,"lng":-143.7222,"city":"Chalkyitsik","state":"Alaska"},"36003":{"lat":32.4625,"lng":-86.7149,"city":"Autaugaville","state":"Alabama"},"36006":{"lat":32.6596,"lng":-86.7178,"city":"Billingsley","state":"Alabama"},"36008":{"lat":32.5016,"lng":-86.5727,"city":"Booth","state":"Alabama"},"36051":{"lat":32.6841,"lng":-86.4946,"city":"Marbury","state":"Alabama"},"36066":{"lat":32.4787,"lng":-86.43,"city":"Prattville","state":"Alabama"},"36067":{"lat":32.4715,"lng":-86.4831,"city":"Prattville","state":"Alabama"},"36068":{"lat":32.464,"lng":-86.4597,"city":"Prattville","state":"Alabama"},"36749":{"lat":32.5104,"lng":-86.8138,"city":"Jones","state":"Alabama"},"36507":{"lat":30.8635,"lng":-87.7644,"city":"Bay Minette","state":"Alabama"},"36511":{"lat":30.3128,"lng":-87.7431,"city":"Bon Secour","state":"Alabama"},"36526":{"lat":30.6197,"lng":-87.8895,"city":"Daphne","state":"Alabama"},"36527":{"lat":30.6959,"lng":-87.8867,"city":"Spanish Fort","state":"Alabama"},"36530":{"lat":30.3942,"lng":-87.589,"city":"Elberta","state":"Alabama"},"36532":{"lat":30.5012,"lng":-87.8835,"city":"Fairhope","state":"Alabama"},"36533":{"lat":30.4841,"lng":-87.8606,"city":"Fairhope","state":"Alabama"},"36535":{"lat":30.4007,"lng":-87.6857,"city":"Foley","state":"Alabama"},"36536":{"lat":30.4222,"lng":-87.7064,"city":"Foley","state":"Alabama"},"36542":{"lat":30.2717,"lng":-87.7589,"city":"Gulf Shores","state":"Alabama"},"36547":{"lat":30.246,"lng":-87.7008,"city":"Gulf Shores","state":"Alabama"},"36549":{"lat":30.3972,"lng":-87.4745,"city":"Lillian","state":"Alabama"},"36550":{"lat":31.2246,"lng":-87.7548,"city":"Little River","state":"Alabama"},"36551":{"lat":30.618,"lng":-87.7562,"city":"Loxley","state":"Alabama"},"36555":{"lat":30.3996,"lng":-87.7761,"city":"Magnolia Springs","state":"Alabama"},"36559":{"lat":30.5623,"lng":-87.9005,"city":"Montrose","state":"Alabama"},"36561":{"lat":30.281,"lng":-87.5815,"city":"Orange Beach","state":"Alabama"},"36562":{"lat":31.0403,"lng":-87.6667,"city":"Perdido","state":"Alabama"},"36564":{"lat":30.4741,"lng":-87.9192,"city":"Point Clear","state":"Alabama"},"36567":{"lat":30.5616,"lng":-87.6373,"city":"Robertsdale","state":"Alabama"},"36574":{"lat":30.5048,"lng":-87.4659,"city":"Seminole","state":"Alabama"},"36576":{"lat":30.5222,"lng":-87.7457,"city":"Silverhill","state":"Alabama"},"36577":{"lat":30.6749,"lng":-87.9153,"city":"Spanish Fort","state":"Alabama"},"36578":{"lat":30.7476,"lng":-87.7787,"city":"Stapleton","state":"Alabama"},"36579":{"lat":31.0129,"lng":-87.8633,"city":"Stockton","state":"Alabama"},"36580":{"lat":30.4752,"lng":-87.6992,"city":"Summerdale","state":"Alabama"},"36016":{"lat":31.8874,"lng":-85.4509,"city":"Clayton","state":"Alabama"},"36017":{"lat":31.6852,"lng":-85.5904,"city":"Clio","state":"Alabama"},"36027":{"lat":31.9051,"lng":-85.1656,"city":"Eufaula","state":"Alabama"},"36048":{"lat":31.7943,"lng":-85.5581,"city":"Louisville","state":"Alabama"},"36072":{"lat":31.8913,"lng":-85.1455,"city":"Eufaula","state":"Alabama"},"35034":{"lat":32.9357,"lng":-87.2114,"city":"Brent","state":"Alabama"},"35035":{"lat":33.0427,"lng":-86.9517,"city":"Brierfield","state":"Alabama"},"35042":{"lat":32.9503,"lng":-87.1192,"city":"Centreville","state":"Alabama"},"35074":{"lat":33.2251,"lng":-87.1264,"city":"Green Pond","state":"Alabama"},"35184":{"lat":33.1424,"lng":-87.1369,"city":"West Blocton","state":"Alabama"},"35188":{"lat":33.2068,"lng":-87.15,"city":"Woodstock","state":"Alabama"},"36792":{"lat":32.8888,"lng":-86.907,"city":"Randolph","state":"Alabama"},"36793":{"lat":32.8646,"lng":-86.9567,"city":"Lawley","state":"Alabama"},"35013":{"lat":33.9222,"lng":-86.4493,"city":"Allgood","state":"Alabama"},"35031":{"lat":34.0929,"lng":-86.5686,"city":"Blountsville","state":"Alabama"},"35049":{"lat":33.9778,"lng":-86.5598,"city":"Cleveland","state":"Alabama"},"35079":{"lat":33.9534,"lng":-86.7455,"city":"Hayden","state":"Alabama"},"35097":{"lat":33.905,"lng":-86.6261,"city":"Locust Fork","state":"Alabama"},"35121":{"lat":33.9259,"lng":-86.4741,"city":"Oneonta","state":"Alabama"},"35133":{"lat":33.8168,"lng":-86.6008,"city":"Remlap","state":"Alabama"},"36029":{"lat":32.2165,"lng":-85.8888,"city":"Fitzpatrick","state":"Alabama"},"36053":{"lat":32.0955,"lng":-85.5315,"city":"Midway","state":"Alabama"},"36061":{"lat":32.0928,"lng":-85.7046,"city":"Perote","state":"Alabama"},"36089":{"lat":32.1443,"lng":-85.7149,"city":"Union Springs","state":"Alabama"},"36015":{"lat":31.6427,"lng":-86.7343,"city":"Chapman","state":"Alabama"},"36030":{"lat":31.8501,"lng":-86.8372,"city":"Forest Home","state":"Alabama"},"36033":{"lat":31.6287,"lng":-86.734,"city":"Georgiana","state":"Alabama"},"36037":{"lat":31.81,"lng":-86.6229,"city":"Greenville","state":"Alabama"},"36456":{"lat":31.545,"lng":-86.7356,"city":"Mc Kenzie","state":"Alabama"},"36201":{"lat":33.6539,"lng":-85.8382,"city":"Anniston","state":"Alabama"},"36202":{"lat":33.7622,"lng":-85.8378,"city":"Anniston","state":"Alabama"},"36203":{"lat":33.5815,"lng":-85.8328,"city":"Oxford","state":"Alabama"},"36204":{"lat":33.7622,"lng":-85.8378,"city":"Anniston","state":"Alabama"},"36205":{"lat":33.7358,"lng":-85.7933,"city":"Anniston","state":"Alabama"},"36206":{"lat":33.7191,"lng":-85.8389,"city":"Anniston","state":"Alabama"},"36207":{"lat":33.6803,"lng":-85.7137,"city":"Anniston","state":"Alabama"},"36250":{"lat":33.7808,"lng":-85.8924,"city":"Alexandria","state":"Alabama"},"36253":{"lat":33.7622,"lng":-85.8378,"city":"Bynum","state":"Alabama"},"36254":{"lat":33.6573,"lng":-85.6991,"city":"Choccolocco","state":"Alabama"},"36257":{"lat":33.7622,"lng":-85.8378,"city":"De Armanville","state":"Alabama"},"36260":{"lat":33.6031,"lng":-85.9608,"city":"Eastaboga","state":"Alabama"},"36265":{"lat":33.831,"lng":-85.7752,"city":"Jacksonville","state":"Alabama"},"36271":{"lat":33.7788,"lng":-86.0254,"city":"Ohatchee","state":"Alabama"},"36272":{"lat":33.8389,"lng":-85.646,"city":"Piedmont","state":"Alabama"},"36277":{"lat":33.7563,"lng":-85.8107,"city":"Weaver","state":"Alabama"},"36279":{"lat":33.8226,"lng":-85.8927,"city":"Wellington","state":"Alabama"},"36852":{"lat":32.7831,"lng":-85.2756,"city":"Cusseta","state":"Alabama"},"36854":{"lat":32.8113,"lng":-85.1749,"city":"Valley","state":"Alabama"},"36855":{"lat":33.0424,"lng":-85.3243,"city":"Five Points","state":"Alabama"},"36862":{"lat":32.9252,"lng":-85.4426,"city":"Lafayette","state":"Alabama"},"36863":{"lat":32.8616,"lng":-85.2161,"city":"Lanett","state":"Alabama"},"35959":{"lat":34.2417,"lng":-85.6026,"city":"Cedar Bluff","state":"Alabama"},"35960":{"lat":34.1116,"lng":-85.6092,"city":"Centre","state":"Alabama"},"35973":{"lat":34.3573,"lng":-85.5589,"city":"Gaylesville","state":"Alabama"},"35983":{"lat":34.1911,"lng":-85.7705,"city":"Leesburg","state":"Alabama"},"36275":{"lat":33.9778,"lng":-85.5521,"city":"Spring Garden","state":"Alabama"},"35045":{"lat":32.8355,"lng":-86.6425,"city":"Clanton","state":"Alabama"},"35046":{"lat":32.9229,"lng":-86.545,"city":"Clanton","state":"Alabama"},"35085":{"lat":32.9805,"lng":-86.7181,"city":"Jemison","state":"Alabama"},"35171":{"lat":32.9157,"lng":-86.7158,"city":"Thorsby","state":"Alabama"},"36091":{"lat":32.7499,"lng":-86.5114,"city":"Verbena","state":"Alabama"},"36750":{"lat":32.8045,"lng":-86.8717,"city":"Maplesville","state":"Alabama"},"36790":{"lat":32.7332,"lng":-86.8963,"city":"Stanton","state":"Alabama"},"36904":{"lat":32.0829,"lng":-88.2064,"city":"Butler","state":"Alabama"},"36908":{"lat":31.8666,"lng":-88.3265,"city":"Gilbertown","state":"Alabama"},"36910":{"lat":32.2299,"lng":-88.1684,"city":"Jachin","state":"Alabama"},"36912":{"lat":32.2177,"lng":-88.3234,"city":"Lisman","state":"Alabama"},"36913":{"lat":31.9304,"lng":-88.4589,"city":"Melvin","state":"Alabama"},"36915":{"lat":31.9879,"lng":-88.3367,"city":"Needham","state":"Alabama"},"36916":{"lat":32.2094,"lng":-88.049,"city":"Pennington","state":"Alabama"},"36919":{"lat":31.7668,"lng":-88.3091,"city":"Silas","state":"Alabama"},"36921":{"lat":31.9155,"lng":-88.151,"city":"Toxey","state":"Alabama"},"36922":{"lat":32.3038,"lng":-88.1476,"city":"Ward","state":"Alabama"},"36436":{"lat":31.7635,"lng":-87.7106,"city":"Dickinson","state":"Alabama"},"36446":{"lat":31.7925,"lng":-87.72,"city":"Fulton","state":"Alabama"},"36451":{"lat":31.7088,"lng":-87.7772,"city":"Grove Hill","state":"Alabama"},"36482":{"lat":31.6395,"lng":-87.6565,"city":"Whatley","state":"Alabama"},"36524":{"lat":31.7843,"lng":-88.0715,"city":"Coffeeville","state":"Alabama"},"36540":{"lat":31.4258,"lng":-87.6822,"city":"Gainestown","state":"Alabama"},"36545":{"lat":31.5131,"lng":-87.8672,"city":"Jackson","state":"Alabama"},"36727":{"lat":31.9213,"lng":-88.008,"city":"Campbell","state":"Alabama"},"36784":{"lat":31.9067,"lng":-87.7598,"city":"Thomasville","state":"Alabama"},"35082":{"lat":33.1162,"lng":-86.1386,"city":"Hollins","state":"Alabama"},"36251":{"lat":33.2474,"lng":-85.829,"city":"Ashland","state":"Alabama"},"36255":{"lat":33.2171,"lng":-85.7108,"city":"Cragford","state":"Alabama"},"36258":{"lat":33.4573,"lng":-85.6793,"city":"Delta","state":"Alabama"},"36266":{"lat":33.3286,"lng":-85.7346,"city":"Lineville","state":"Alabama"},"36267":{"lat":33.1915,"lng":-85.9258,"city":"Millerville","state":"Alabama"},"36261":{"lat":33.7066,"lng":-85.5099,"city":"Edwardsville","state":"Alabama"},"36262":{"lat":33.7717,"lng":-85.4381,"city":"Fruithurst","state":"Alabama"},"36264":{"lat":33.6115,"lng":-85.5885,"city":"Heflin","state":"Alabama"},"36269":{"lat":33.7529,"lng":-85.3789,"city":"Muscadine","state":"Alabama"},"36273":{"lat":33.5616,"lng":-85.3786,"city":"Ranburne","state":"Alabama"},"36323":{"lat":31.4137,"lng":-86.0777,"city":"Elba","state":"Alabama"},"36330":{"lat":31.3408,"lng":-85.8421,"city":"Enterprise","state":"Alabama"},"36331":{"lat":31.2978,"lng":-85.9036,"city":"Enterprise","state":"Alabama"},"36346":{"lat":31.5652,"lng":-85.971,"city":"Jack","state":"Alabama"},"36351":{"lat":31.369,"lng":-85.9404,"city":"New Brockton","state":"Alabama"},"36453":{"lat":31.1926,"lng":-86.1514,"city":"Kinston","state":"Alabama"},"35616":{"lat":34.7442,"lng":-87.9724,"city":"Cherokee","state":"Alabama"},"35646":{"lat":34.711,"lng":-87.5221,"city":"Leighton","state":"Alabama"},"35660":{"lat":34.7578,"lng":-87.6971,"city":"Sheffield","state":"Alabama"},"35661":{"lat":34.7561,"lng":-87.6304,"city":"Muscle Shoals","state":"Alabama"},"35662":{"lat":34.7448,"lng":-87.6675,"city":"Muscle Shoals","state":"Alabama"},"35674":{"lat":34.6874,"lng":-87.6833,"city":"Tuscumbia","state":"Alabama"},"36401":{"lat":31.458,"lng":-86.9258,"city":"Evergreen","state":"Alabama"},"36429":{"lat":31.2627,"lng":-86.7711,"city":"Brooklyn","state":"Alabama"},"36432":{"lat":31.2991,"lng":-87.0225,"city":"Castleberry","state":"Alabama"},"36454":{"lat":31.3366,"lng":-87.1855,"city":"Lenox","state":"Alabama"},"36473":{"lat":31.3058,"lng":-87.2137,"city":"Range","state":"Alabama"},"36475":{"lat":31.4256,"lng":-87.172,"city":"Repton","state":"Alabama"},"35072":{"lat":33.0746,"lng":-86.0781,"city":"Goodwater","state":"Alabama"},"35089":{"lat":32.9791,"lng":-86.0484,"city":"Kellyton","state":"Alabama"},"35136":{"lat":32.878,"lng":-86.24,"city":"Rockford","state":"Alabama"},"35183":{"lat":33.0238,"lng":-86.3042,"city":"Weogufka","state":"Alabama"},"36026":{"lat":32.8139,"lng":-86.1051,"city":"Equality","state":"Alabama"},"36038":{"lat":31.4068,"lng":-86.4841,"city":"Gantt","state":"Alabama"},"36420":{"lat":31.2971,"lng":-86.4905,"city":"Andalusia","state":"Alabama"},"36442":{"lat":31.0172,"lng":-86.3385,"city":"Florala","state":"Alabama"},"36455":{"lat":31.0105,"lng":-86.3497,"city":"Lockhart","state":"Alabama"},"36467":{"lat":31.2799,"lng":-86.2571,"city":"Opp","state":"Alabama"},"36474":{"lat":31.4399,"lng":-86.6121,"city":"Red Level","state":"Alabama"},"36476":{"lat":31.3533,"lng":-86.541,"city":"River Falls","state":"Alabama"},"36483":{"lat":31.0223,"lng":-86.6293,"city":"Wing","state":"Alabama"},"36009":{"lat":31.571,"lng":-86.2743,"city":"Brantley","state":"Alabama"},"36028":{"lat":31.5066,"lng":-86.3663,"city":"Dozier","state":"Alabama"},"36034":{"lat":31.6641,"lng":-86.171,"city":"Glenwood","state":"Alabama"},"36041":{"lat":31.9283,"lng":-86.2971,"city":"Highland Home","state":"Alabama"},"36042":{"lat":31.8784,"lng":-86.3981,"city":"Honoraville","state":"Alabama"},"36049":{"lat":31.7074,"lng":-86.2566,"city":"Luverne","state":"Alabama"},"36062":{"lat":31.8488,"lng":-86.2077,"city":"Petrey","state":"Alabama"},"36071":{"lat":31.7062,"lng":-86.3715,"city":"Rutledge","state":"Alabama"},"35019":{"lat":34.2683,"lng":-86.6213,"city":"Baileyton","state":"Alabama"},"35033":{"lat":33.9737,"lng":-87.0043,"city":"Bremen","state":"Alabama"},"35053":{"lat":34.0821,"lng":-87.0484,"city":"Crane Hill","state":"Alabama"},"35055":{"lat":34.1761,"lng":-86.8298,"city":"Cullman","state":"Alabama"},"35056":{"lat":34.1748,"lng":-86.8436,"city":"Cullman","state":"Alabama"},"35057":{"lat":34.0878,"lng":-86.9447,"city":"Cullman","state":"Alabama"},"35058":{"lat":34.2098,"lng":-86.752,"city":"Cullman","state":"Alabama"},"35070":{"lat":34.0058,"lng":-86.7499,"city":"Garden City","state":"Alabama"},"35077":{"lat":34.0516,"lng":-86.7848,"city":"Hanceville","state":"Alabama"},"35083":{"lat":34.1901,"lng":-86.6174,"city":"Holly Pond","state":"Alabama"},"35087":{"lat":34.2837,"lng":-86.5519,"city":"Joppa","state":"Alabama"},"35098":{"lat":34.1377,"lng":-87.0266,"city":"Logan","state":"Alabama"},"35179":{"lat":34.2621,"lng":-86.9125,"city":"Vinemont","state":"Alabama"},"36311":{"lat":31.583,"lng":-85.7077,"city":"Ariton","state":"Alabama"},"36317":{"lat":31.6446,"lng":-85.3911,"city":"Clopton","state":"Alabama"},"36322":{"lat":31.2811,"lng":-85.7305,"city":"Daleville","state":"Alabama"},"36350":{"lat":31.3191,"lng":-85.4938,"city":"Midland City","state":"Alabama"},"36352":{"lat":31.3311,"lng":-85.5992,"city":"Newton","state":"Alabama"},"36360":{"lat":31.4391,"lng":-85.6436,"city":"Ozark","state":"Alabama"},"36361":{"lat":31.4591,"lng":-85.6405,"city":"Ozark","state":"Alabama"},"36362":{"lat":31.348,"lng":-85.7214,"city":"Fort Rucker","state":"Alabama"},"36371":{"lat":31.3074,"lng":-85.5263,"city":"Pinckard","state":"Alabama"},"36374":{"lat":31.5748,"lng":-85.537,"city":"Skipperville","state":"Alabama"},"36701":{"lat":32.4197,"lng":-87.0245,"city":"Selma","state":"Alabama"},"36702":{"lat":32.4074,"lng":-87.0211,"city":"Selma","state":"Alabama"},"36703":{"lat":32.4156,"lng":-87.0135,"city":"Selma","state":"Alabama"},"36758":{"lat":32.6176,"lng":-86.9475,"city":"Plantersville","state":"Alabama"},"36759":{"lat":32.4266,"lng":-87.2702,"city":"Marion Junction","state":"Alabama"},"36761":{"lat":32.1899,"lng":-87.0633,"city":"Minter","state":"Alabama"},"36767":{"lat":32.2949,"lng":-87.2214,"city":"Orrville","state":"Alabama"},"36773":{"lat":32.3002,"lng":-87.3693,"city":"Safford","state":"Alabama"},"36775":{"lat":32.2844,"lng":-86.992,"city":"Sardis","state":"Alabama"},"36785":{"lat":32.3239,"lng":-86.8646,"city":"Tyler","state":"Alabama"},"35961":{"lat":34.268,"lng":-85.862,"city":"Collinsville","state":"Alabama"},"35962":{"lat":34.2588,"lng":-86.0306,"city":"Crossville","state":"Alabama"},"35963":{"lat":34.3568,"lng":-85.9292,"city":"Dawson","state":"Alabama"},"35967":{"lat":34.4368,"lng":-85.7124,"city":"Fort Payne","state":"Alabama"},"35968":{"lat":34.4898,"lng":-85.7657,"city":"Fort Payne","state":"Alabama"},"35971":{"lat":34.4373,"lng":-85.9288,"city":"Fyffe","state":"Alabama"},"35974":{"lat":34.3592,"lng":-86.024,"city":"Geraldine","state":"Alabama"},"35975":{"lat":34.4359,"lng":-86.04,"city":"Groveoak","state":"Alabama"},"35978":{"lat":34.6186,"lng":-85.7274,"city":"Henagar","state":"Alabama"},"35981":{"lat":34.7351,"lng":-85.6416,"city":"Ider","state":"Alabama"},"35984":{"lat":34.5872,"lng":-85.5777,"city":"Mentone","state":"Alabama"},"35986":{"lat":34.4989,"lng":-85.8446,"city":"Rainsville","state":"Alabama"},"35988":{"lat":34.559,"lng":-85.7921,"city":"Sylvania","state":"Alabama"},"35989":{"lat":34.5697,"lng":-85.6272,"city":"Valley Head","state":"Alabama"},"36020":{"lat":32.5056,"lng":-86.3322,"city":"Coosada","state":"Alabama"},"36022":{"lat":32.6082,"lng":-86.3958,"city":"Deatsville","state":"Alabama"},"36024":{"lat":32.6542,"lng":-86.0316,"city":"Eclectic","state":"Alabama"},"36025":{"lat":32.5454,"lng":-86.3161,"city":"Elmore","state":"Alabama"},"36045":{"lat":32.619,"lng":-85.9486,"city":"Kent","state":"Alabama"},"36054":{"lat":32.4995,"lng":-86.3641,"city":"Millbrook","state":"Alabama"},"36078":{"lat":32.551,"lng":-85.8978,"city":"Tallassee","state":"Alabama"},"36080":{"lat":32.69,"lng":-86.2393,"city":"Titus","state":"Alabama"},"36092":{"lat":32.5927,"lng":-86.2153,"city":"Wetumpka","state":"Alabama"},"36093":{"lat":32.5622,"lng":-86.0994,"city":"Wetumpka","state":"Alabama"},"36426":{"lat":31.1294,"lng":-87.0961,"city":"Brewton","state":"Alabama"},"36427":{"lat":31.1052,"lng":-87.0722,"city":"Brewton","state":"Alabama"},"36441":{"lat":31.0402,"lng":-87.2664,"city":"Flomaton","state":"Alabama"},"36502":{"lat":31.0572,"lng":-87.4873,"city":"Atmore","state":"Alabama"},"36503":{"lat":31.0238,"lng":-87.4939,"city":"Atmore","state":"Alabama"},"36504":{"lat":31.0158,"lng":-87.4972,"city":"Atmore","state":"Alabama"},"36543":{"lat":31.2202,"lng":-87.4619,"city":"Huxford","state":"Alabama"},"35901":{"lat":34.048,"lng":-85.9246,"city":"Gadsden","state":"Alabama"},"35902":{"lat":34.0143,"lng":-86.0066,"city":"Gadsden","state":"Alabama"},"35903":{"lat":33.9845,"lng":-85.9077,"city":"Gadsden","state":"Alabama"},"35904":{"lat":34.0217,"lng":-86.0495,"city":"Gadsden","state":"Alabama"},"35905":{"lat":33.9352,"lng":-85.9576,"city":"Gadsden","state":"Alabama"},"35906":{"lat":33.9318,"lng":-86.0898,"city":"Rainbow City","state":"Alabama"},"35907":{"lat":33.8979,"lng":-86.0245,"city":"Gadsden","state":"Alabama"},"35952":{"lat":34.071,"lng":-86.2096,"city":"Altoona","state":"Alabama"},"35954":{"lat":34.0296,"lng":-86.0967,"city":"Attalla","state":"Alabama"},"35972":{"lat":33.9976,"lng":-86.2346,"city":"Gallant","state":"Alabama"},"35990":{"lat":34.0657,"lng":-86.3064,"city":"Walnut Grove","state":"Alabama"},"35542":{"lat":33.7008,"lng":-87.6897,"city":"Bankston","state":"Alabama"},"35545":{"lat":33.6476,"lng":-87.9314,"city":"Belk","state":"Alabama"},"35546":{"lat":33.6945,"lng":-87.6226,"city":"Berry","state":"Alabama"},"35555":{"lat":33.6974,"lng":-87.8346,"city":"Fayette","state":"Alabama"},"35559":{"lat":33.9151,"lng":-87.7417,"city":"Glen Allen","state":"Alabama"},"35571":{"lat":34.3417,"lng":-87.959,"city":"Hodges","state":"Alabama"},"35581":{"lat":34.347,"lng":-87.7154,"city":"Phil Campbell","state":"Alabama"},"35582":{"lat":34.4513,"lng":-88.1129,"city":"Red Bay","state":"Alabama"},"35585":{"lat":34.4246,"lng":-87.8145,"city":"Spruce Pine","state":"Alabama"},"35593":{"lat":34.3712,"lng":-88.0774,"city":"Vina","state":"Alabama"},"35653":{"lat":34.5066,"lng":-87.7257,"city":"Russellville","state":"Alabama"},"35654":{"lat":34.4675,"lng":-87.6478,"city":"Russellville","state":"Alabama"},"36313":{"lat":31.1732,"lng":-85.7933,"city":"Bellwood","state":"Alabama"},"36314":{"lat":31.0132,"lng":-85.7456,"city":"Black","state":"Alabama"},"36316":{"lat":31.1767,"lng":-85.8135,"city":"Chancellor","state":"Alabama"},"36318":{"lat":31.1388,"lng":-85.9182,"city":"Coffee Springs","state":"Alabama"},"36340":{"lat":31.0414,"lng":-85.8847,"city":"Geneva","state":"Alabama"},"36344":{"lat":31.086,"lng":-85.7192,"city":"Hartford","state":"Alabama"},"36349":{"lat":31.1212,"lng":-85.5592,"city":"Malvern","state":"Alabama"},"36375":{"lat":31.0956,"lng":-85.583,"city":"Slocomb","state":"Alabama"},"36477":{"lat":31.1049,"lng":-86.0674,"city":"Samson","state":"Alabama"},"35443":{"lat":32.7746,"lng":-88.0267,"city":"Boligee","state":"Alabama"},"35448":{"lat":32.9137,"lng":-87.9925,"city":"Clinton","state":"Alabama"},"35462":{"lat":32.8889,"lng":-87.9303,"city":"Eutaw","state":"Alabama"},"35469":{"lat":32.9824,"lng":-87.7919,"city":"Knoxville","state":"Alabama"},"35491":{"lat":32.9237,"lng":-88.0853,"city":"West Greene","state":"Alabama"},"36740":{"lat":32.6108,"lng":-87.8441,"city":"Forkland","state":"Alabama"},"35441":{"lat":32.8553,"lng":-87.7219,"city":"Akron","state":"Alabama"},"35474":{"lat":32.9108,"lng":-87.5935,"city":"Moundville","state":"Alabama"},"36742":{"lat":32.5298,"lng":-87.6985,"city":"Gallion","state":"Alabama"},"36744":{"lat":32.7167,"lng":-87.5905,"city":"Greensboro","state":"Alabama"},"36765":{"lat":32.5515,"lng":-87.5615,"city":"Newbern","state":"Alabama"},"36776":{"lat":32.7578,"lng":-87.7402,"city":"Sawyerville","state":"Alabama"},"36310":{"lat":31.5755,"lng":-85.279,"city":"Abbeville","state":"Alabama"},"36345":{"lat":31.3534,"lng":-85.3323,"city":"Headland","state":"Alabama"},"36353":{"lat":31.4403,"lng":-85.3287,"city":"Newville","state":"Alabama"},"36373":{"lat":31.501,"lng":-85.1135,"city":"Shorterville","state":"Alabama"},"36301":{"lat":31.1481,"lng":-85.3718,"city":"Dothan","state":"Alabama"},"36302":{"lat":31.2232,"lng":-85.3905,"city":"Dothan","state":"Alabama"},"36303":{"lat":31.2668,"lng":-85.3971,"city":"Dothan","state":"Alabama"},"36304":{"lat":31.156,"lng":-85.3559,"city":"Dothan","state":"Alabama"},"36305":{"lat":31.2197,"lng":-85.4828,"city":"Dothan","state":"Alabama"},"36312":{"lat":31.1888,"lng":-85.2535,"city":"Ashford","state":"Alabama"},"36319":{"lat":31.3352,"lng":-85.1455,"city":"Columbia","state":"Alabama"},"36320":{"lat":31.0507,"lng":-85.3154,"city":"Cottonwood","state":"Alabama"},"36321":{"lat":31.2025,"lng":-85.3014,"city":"Cowarts","state":"Alabama"},"36343":{"lat":31.1002,"lng":-85.1234,"city":"Gordon","state":"Alabama"},"36370":{"lat":31.1403,"lng":-85.1573,"city":"Pansey","state":"Alabama"},"36376":{"lat":31.2656,"lng":-85.2544,"city":"Webb","state":"Alabama"},"35740":{"lat":34.9446,"lng":-85.7277,"city":"Bridgeport","state":"Alabama"},"35744":{"lat":34.6046,"lng":-85.9067,"city":"Dutton","state":"Alabama"},"35745":{"lat":34.913,"lng":-86.1716,"city":"Estillfork","state":"Alabama"},"35746":{"lat":34.8259,"lng":-85.9846,"city":"Fackler","state":"Alabama"},"35751":{"lat":34.7955,"lng":-86.2743,"city":"Hollytree","state":"Alabama"},"35752":{"lat":34.7304,"lng":-85.9532,"city":"Hollywood","state":"Alabama"},"35755":{"lat":34.5001,"lng":-86.1353,"city":"Langston","state":"Alabama"},"35764":{"lat":34.7031,"lng":-86.3068,"city":"Paint Rock","state":"Alabama"},"35765":{"lat":34.6809,"lng":-85.8478,"city":"Pisgah","state":"Alabama"},"35766":{"lat":34.8713,"lng":-86.2513,"city":"Princeton","state":"Alabama"},"35768":{"lat":34.7507,"lng":-86.1422,"city":"Scottsboro","state":"Alabama"},"35769":{"lat":34.618,"lng":-86.0562,"city":"Scottsboro","state":"Alabama"},"35771":{"lat":34.5433,"lng":-85.994,"city":"Section","state":"Alabama"},"35772":{"lat":34.8769,"lng":-85.8508,"city":"Stevenson","state":"Alabama"},"35774":{"lat":34.7632,"lng":-86.2295,"city":"Trenton","state":"Alabama"},"35776":{"lat":34.6689,"lng":-86.2296,"city":"Woodville","state":"Alabama"},"35958":{"lat":34.945,"lng":-85.6324,"city":"Bryant","state":"Alabama"},"35966":{"lat":34.8076,"lng":-85.7084,"city":"Flat Rock","state":"Alabama"},"35979":{"lat":34.8391,"lng":-85.6196,"city":"Higdon","state":"Alabama"},"35005":{"lat":33.5884,"lng":-86.9597,"city":"Adamsville","state":"Alabama"},"35006":{"lat":33.4343,"lng":-87.1675,"city":"Adger","state":"Alabama"},"35015":{"lat":33.5793,"lng":-86.6375,"city":"Alton","state":"Alabama"},"35020":{"lat":33.409,"lng":-86.9475,"city":"Bessemer","state":"Alabama"},"35021":{"lat":33.5446,"lng":-86.9292,"city":"Bessemer","state":"Alabama"},"35022":{"lat":33.3224,"lng":-86.9657,"city":"Bessemer","state":"Alabama"},"35023":{"lat":33.468,"lng":-87.0924,"city":"Bessemer","state":"Alabama"},"35036":{"lat":33.6379,"lng":-86.9167,"city":"Brookside","state":"Alabama"},"35048":{"lat":33.7026,"lng":-86.5997,"city":"Clay","state":"Alabama"},"35060":{"lat":33.5589,"lng":-86.9294,"city":"Docena","state":"Alabama"},"35061":{"lat":33.4654,"lng":-86.9564,"city":"Dolomite","state":"Alabama"},"35064":{"lat":33.4735,"lng":-86.9183,"city":"Fairfield","state":"Alabama"},"35068":{"lat":33.6017,"lng":-86.8265,"city":"Fultondale","state":"Alabama"},"35071":{"lat":33.7189,"lng":-86.8225,"city":"Gardendale","state":"Alabama"},"35073":{"lat":33.6539,"lng":-86.9803,"city":"Graysville","state":"Alabama"},"35091":{"lat":33.7684,"lng":-86.8084,"city":"Kimberly","state":"Alabama"},"35094":{"lat":33.5283,"lng":-86.5748,"city":"Leeds","state":"Alabama"},"35111":{"lat":33.2845,"lng":-87.1024,"city":"Mc Calla","state":"Alabama"},"35116":{"lat":33.7392,"lng":-86.7726,"city":"Morris","state":"Alabama"},"35117":{"lat":33.6768,"lng":-86.8717,"city":"Mount Olive","state":"Alabama"},"35118":{"lat":33.5363,"lng":-87.051,"city":"Mulga","state":"Alabama"},"35119":{"lat":33.649,"lng":-86.7686,"city":"New Castle","state":"Alabama"},"35123":{"lat":33.7387,"lng":-86.6461,"city":"Palmerdale","state":"Alabama"},"35126":{"lat":33.7299,"lng":-86.6451,"city":"Pinson","state":"Alabama"},"35127":{"lat":33.4883,"lng":-86.9766,"city":"Pleasant Grove","state":"Alabama"},"35139":{"lat":33.7111,"lng":-86.9759,"city":"Sayre","state":"Alabama"},"35142":{"lat":33.4069,"lng":-86.8735,"city":"Shannon","state":"Alabama"},"35172":{"lat":33.819,"lng":-86.7434,"city":"Trafford","state":"Alabama"},"35173":{"lat":33.6339,"lng":-86.5981,"city":"Trussville","state":"Alabama"},"35180":{"lat":33.8529,"lng":-86.8198,"city":"Warrior","state":"Alabama"},"35181":{"lat":33.5446,"lng":-86.9292,"city":"Watson","state":"Alabama"},"35201":{"lat":33.5207,"lng":-86.8025,"city":"Birmingham","state":"Alabama"},"35202":{"lat":33.5207,"lng":-86.8025,"city":"Birmingham","state":"Alabama"},"35203":{"lat":33.521,"lng":-86.8066,"city":"Birmingham","state":"Alabama"},"35204":{"lat":33.5179,"lng":-86.8372,"city":"Birmingham","state":"Alabama"},"35205":{"lat":33.4951,"lng":-86.8059,"city":"Birmingham","state":"Alabama"},"35206":{"lat":33.5678,"lng":-86.7199,"city":"Birmingham","state":"Alabama"},"35207":{"lat":33.5594,"lng":-86.8153,"city":"Birmingham","state":"Alabama"},"35208":{"lat":33.4977,"lng":-86.8799,"city":"Birmingham","state":"Alabama"},"35209":{"lat":33.4653,"lng":-86.8082,"city":"Birmingham","state":"Alabama"},"35210":{"lat":33.5452,"lng":-86.6655,"city":"Birmingham","state":"Alabama"},"35211":{"lat":33.4816,"lng":-86.859,"city":"Birmingham","state":"Alabama"},"35212":{"lat":33.5409,"lng":-86.7495,"city":"Birmingham","state":"Alabama"},"35213":{"lat":33.5066,"lng":-86.7428,"city":"Birmingham","state":"Alabama"},"35214":{"lat":33.5554,"lng":-86.887,"city":"Birmingham","state":"Alabama"},"35215":{"lat":33.6493,"lng":-86.7057,"city":"Birmingham","state":"Alabama"},"35216":{"lat":33.4188,"lng":-86.7867,"city":"Birmingham","state":"Alabama"},"35217":{"lat":33.5887,"lng":-86.765,"city":"Birmingham","state":"Alabama"},"35218":{"lat":33.506,"lng":-86.893,"city":"Birmingham","state":"Alabama"},"35219":{"lat":33.5446,"lng":-86.9292,"city":"Birmingham","state":"Alabama"},"35220":{"lat":33.5446,"lng":-86.9292,"city":"Birmingham","state":"Alabama"},"35221":{"lat":33.4523,"lng":-86.8935,"city":"Birmingham","state":"Alabama"},"35222":{"lat":33.5219,"lng":-86.7666,"city":"Birmingham","state":"Alabama"},"35223":{"lat":33.4995,"lng":-86.7268,"city":"Birmingham","state":"Alabama"},"35224":{"lat":33.5191,"lng":-86.9342,"city":"Birmingham","state":"Alabama"},"35226":{"lat":33.3967,"lng":-86.8346,"city":"Birmingham","state":"Alabama"},"35228":{"lat":33.4558,"lng":-86.9118,"city":"Birmingham","state":"Alabama"},"35229":{"lat":33.4629,"lng":-86.7904,"city":"Birmingham","state":"Alabama"},"35231":{"lat":33.5446,"lng":-86.9292,"city":"Birmingham","state":"Alabama"},"35232":{"lat":33.5446,"lng":-86.9292,"city":"Birmingham","state":"Alabama"},"35233":{"lat":33.5062,"lng":-86.8003,"city":"Birmingham","state":"Alabama"},"35234":{"lat":33.5378,"lng":-86.8068,"city":"Birmingham","state":"Alabama"},"35235":{"lat":33.6328,"lng":-86.6493,"city":"Birmingham","state":"Alabama"},"35236":{"lat":33.5446,"lng":-86.9292,"city":"Birmingham","state":"Alabama"},"35237":{"lat":33.5207,"lng":-86.8025,"city":"Birmingham","state":"Alabama"},"35238":{"lat":33.5446,"lng":-86.9292,"city":"Birmingham","state":"Alabama"},"35243":{"lat":33.4459,"lng":-86.7502,"city":"Birmingham","state":"Alabama"},"35244":{"lat":33.3538,"lng":-86.8254,"city":"Birmingham","state":"Alabama"},"35246":{"lat":33.5207,"lng":-86.8025,"city":"Birmingham","state":"Alabama"},"35249":{"lat":33.5207,"lng":-86.8025,"city":"Birmingham","state":"Alabama"},"35253":{"lat":33.5446,"lng":-86.9292,"city":"Birmingham","state":"Alabama"},"35254":{"lat":33.5446,"lng":-86.9292,"city":"Birmingham","state":"Alabama"},"35255":{"lat":33.5446,"lng":-86.9292,"city":"Birmingham","state":"Alabama"},"35259":{"lat":33.5446,"lng":-86.9292,"city":"Birmingham","state":"Alabama"},"35260":{"lat":33.5446,"lng":-86.9292,"city":"Birmingham","state":"Alabama"},"35261":{"lat":33.5446,"lng":-86.9292,"city":"Birmingham","state":"Alabama"},"35266":{"lat":33.3729,"lng":-86.8531,"city":"Birmingham","state":"Alabama"},"35270":{"lat":33.5206,"lng":-86.8025,"city":"Birmingham","state":"Alabama"},"35282":{"lat":33.5446,"lng":-86.9292,"city":"Birmingham","state":"Alabama"},"35283":{"lat":33.5207,"lng":-86.8025,"city":"Birmingham","state":"Alabama"},"35285":{"lat":33.5446,"lng":-86.9292,"city":"Birmingham","state":"Alabama"},"35287":{"lat":33.5207,"lng":-86.8025,"city":"Birmingham","state":"Alabama"},"35288":{"lat":33.4458,"lng":-86.9285,"city":"Birmingham","state":"Alabama"},"35290":{"lat":33.5446,"lng":-86.9292,"city":"Birmingham","state":"Alabama"},"35291":{"lat":33.5207,"lng":-86.8025,"city":"Birmingham","state":"Alabama"},"35292":{"lat":33.5207,"lng":-86.8025,"city":"Birmingham","state":"Alabama"},"35293":{"lat":33.5446,"lng":-86.9292,"city":"Birmingham","state":"Alabama"},"35294":{"lat":33.5446,"lng":-86.9292,"city":"Birmingham","state":"Alabama"},"35295":{"lat":33.5207,"lng":-86.8025,"city":"Birmingham","state":"Alabama"},"35296":{"lat":33.5446,"lng":-86.9292,"city":"Birmingham","state":"Alabama"},"35297":{"lat":33.5446,"lng":-86.9292,"city":"Birmingham","state":"Alabama"},"35298":{"lat":33.5446,"lng":-86.9292,"city":"Birmingham","state":"Alabama"},"35544":{"lat":33.9429,"lng":-88.0157,"city":"Beaverton","state":"Alabama"},"35552":{"lat":34.0282,"lng":-88.17,"city":"Detroit","state":"Alabama"},"35574":{"lat":33.6153,"lng":-87.9948,"city":"Kennedy","state":"Alabama"},"35576":{"lat":33.5401,"lng":-88.2,"city":"Millport","state":"Alabama"},"35586":{"lat":33.8549,"lng":-88.1508,"city":"Sulligent","state":"Alabama"},"35592":{"lat":33.7613,"lng":-88.0979,"city":"Vernon","state":"Alabama"},"35610":{"lat":34.9424,"lng":-87.2734,"city":"Anderson","state":"Alabama"},"35617":{"lat":34.9387,"lng":-87.7714,"city":"Cloverdale","state":"Alabama"},"35630":{"lat":34.8305,"lng":-87.656,"city":"Florence","state":"Alabama"},"35631":{"lat":34.87,"lng":-87.7069,"city":"Florence","state":"Alabama"},"35632":{"lat":34.87,"lng":-87.7069,"city":"Florence","state":"Alabama"},"35633":{"lat":34.8825,"lng":-87.7398,"city":"Florence","state":"Alabama"},"35634":{"lat":34.9186,"lng":-87.6136,"city":"Florence","state":"Alabama"},"35645":{"lat":34.9016,"lng":-87.5082,"city":"Killen","state":"Alabama"},"35648":{"lat":34.9559,"lng":-87.3935,"city":"Lexington","state":"Alabama"},"35652":{"lat":34.8495,"lng":-87.3237,"city":"Rogersville","state":"Alabama"},"35677":{"lat":34.9357,"lng":-87.9624,"city":"Waterloo","state":"Alabama"},"35618":{"lat":34.6719,"lng":-87.3143,"city":"Courtland","state":"Alabama"},"35643":{"lat":34.6476,"lng":-87.1804,"city":"Hillsboro","state":"Alabama"},"35650":{"lat":34.5058,"lng":-87.2224,"city":"Moulton","state":"Alabama"},"35651":{"lat":34.4793,"lng":-87.4769,"city":"Mount Hope","state":"Alabama"},"35672":{"lat":34.6491,"lng":-87.4262,"city":"Town Creek","state":"Alabama"},"36801":{"lat":32.6454,"lng":-85.3783,"city":"Opelika","state":"Alabama"},"36802":{"lat":32.5782,"lng":-85.349,"city":"Opelika","state":"Alabama"},"36803":{"lat":32.6454,"lng":-85.3783,"city":"Opelika","state":"Alabama"},"36804":{"lat":32.5768,"lng":-85.312,"city":"Opelika","state":"Alabama"},"36830":{"lat":32.5475,"lng":-85.4682,"city":"Auburn","state":"Alabama"},"36831":{"lat":32.6099,"lng":-85.4808,"city":"Auburn","state":"Alabama"},"36832":{"lat":32.592,"lng":-85.5189,"city":"Auburn","state":"Alabama"},"36849":{"lat":32.6024,"lng":-85.4873,"city":"Auburn University","state":"Alabama"},"36865":{"lat":32.6043,"lng":-85.5933,"city":"Loachapoka","state":"Alabama"},"36872":{"lat":32.5782,"lng":-85.349,"city":"Valley","state":"Alabama"},"36874":{"lat":32.6212,"lng":-85.184,"city":"Salem","state":"Alabama"},"36877":{"lat":32.5401,"lng":-85.0985,"city":"Smiths Station","state":"Alabama"},"36879":{"lat":32.7632,"lng":-85.5144,"city":"Waverly","state":"Alabama"},"35611":{"lat":34.8036,"lng":-86.9707,"city":"Athens","state":"Alabama"},"35612":{"lat":34.7749,"lng":-87.0305,"city":"Athens","state":"Alabama"},"35613":{"lat":34.8317,"lng":-86.8867,"city":"Athens","state":"Alabama"},"35614":{"lat":34.8474,"lng":-87.0607,"city":"Athens","state":"Alabama"},"35615":{"lat":34.6568,"lng":-86.8792,"city":"Belle Mina","state":"Alabama"},"35620":{"lat":34.929,"lng":-86.9739,"city":"Elkmont","state":"Alabama"},"35647":{"lat":34.9596,"lng":-87.1006,"city":"Lester","state":"Alabama"},"35649":{"lat":34.6259,"lng":-86.8746,"city":"Mooresville","state":"Alabama"},"35671":{"lat":34.6796,"lng":-86.9625,"city":"Tanner","state":"Alabama"},"35739":{"lat":34.9804,"lng":-86.8346,"city":"Ardmore","state":"Alabama"},"35742":{"lat":34.7731,"lng":-86.7928,"city":"Capshaw","state":"Alabama"},"36032":{"lat":31.996,"lng":-86.5761,"city":"Fort Deposit","state":"Alabama"},"36040":{"lat":32.1957,"lng":-86.655,"city":"Hayneville","state":"Alabama"},"36047":{"lat":32.0862,"lng":-86.488,"city":"Letohatchee","state":"Alabama"},"36752":{"lat":32.2943,"lng":-86.6471,"city":"Lowndesboro","state":"Alabama"},"36031":{"lat":32.2507,"lng":-85.7524,"city":"Fort Davis","state":"Alabama"},"36039":{"lat":32.3129,"lng":-85.8838,"city":"Hardaway","state":"Alabama"},"36075":{"lat":32.3836,"lng":-85.9162,"city":"Shorter","state":"Alabama"},"36083":{"lat":32.4316,"lng":-85.6861,"city":"Tuskegee","state":"Alabama"},"36087":{"lat":32.4093,"lng":-85.738,"city":"Tuskegee Institute","state":"Alabama"},"36088":{"lat":32.4145,"lng":-85.7253,"city":"Tuskegee Institute","state":"Alabama"},"36866":{"lat":32.5437,"lng":-85.6871,"city":"Notasulga","state":"Alabama"},"35741":{"lat":34.7167,"lng":-86.4687,"city":"Brownsboro","state":"Alabama"},"35748":{"lat":34.714,"lng":-86.394,"city":"Gurley","state":"Alabama"},"35749":{"lat":34.8273,"lng":-86.7499,"city":"Harvest","state":"Alabama"},"35750":{"lat":34.9496,"lng":-86.5935,"city":"Hazel Green","state":"Alabama"},"35756":{"lat":34.643,"lng":-86.8168,"city":"Madison","state":"Alabama"},"35757":{"lat":34.7782,"lng":-86.7442,"city":"Madison","state":"Alabama"},"35758":{"lat":34.7108,"lng":-86.7425,"city":"Madison","state":"Alabama"},"35759":{"lat":34.8618,"lng":-86.5789,"city":"Meridianville","state":"Alabama"},"35760":{"lat":34.5494,"lng":-86.3961,"city":"New Hope","state":"Alabama"},"35761":{"lat":34.9,"lng":-86.4487,"city":"New Market","state":"Alabama"},"35762":{"lat":34.789,"lng":-86.5719,"city":"Normal","state":"Alabama"},"35763":{"lat":34.6215,"lng":-86.4644,"city":"Owens Cross Roads","state":"Alabama"},"35767":{"lat":34.7698,"lng":-86.4808,"city":"Ryland","state":"Alabama"},"35773":{"lat":34.9116,"lng":-86.7,"city":"Toney","state":"Alabama"},"35801":{"lat":34.7269,"lng":-86.5673,"city":"Huntsville","state":"Alabama"},"35802":{"lat":34.6679,"lng":-86.5603,"city":"Huntsville","state":"Alabama"},"35803":{"lat":34.6205,"lng":-86.551,"city":"Huntsville","state":"Alabama"},"35804":{"lat":34.7284,"lng":-86.5853,"city":"Huntsville","state":"Alabama"},"35805":{"lat":34.7059,"lng":-86.6165,"city":"Huntsville","state":"Alabama"},"35806":{"lat":34.7448,"lng":-86.6704,"city":"Huntsville","state":"Alabama"},"35807":{"lat":34.734,"lng":-86.5229,"city":"Huntsville","state":"Alabama"},"35808":{"lat":34.6845,"lng":-86.6538,"city":"Huntsville","state":"Alabama"},"35809":{"lat":34.734,"lng":-86.5229,"city":"Huntsville","state":"Alabama"},"35810":{"lat":34.7784,"lng":-86.6091,"city":"Huntsville","state":"Alabama"},"35811":{"lat":34.7789,"lng":-86.5438,"city":"Huntsville","state":"Alabama"},"35812":{"lat":34.734,"lng":-86.5229,"city":"Huntsville","state":"Alabama"},"35813":{"lat":34.734,"lng":-86.5229,"city":"Huntsville","state":"Alabama"},"35814":{"lat":34.734,"lng":-86.5229,"city":"Huntsville","state":"Alabama"},"35815":{"lat":34.734,"lng":-86.5229,"city":"Huntsville","state":"Alabama"},"35816":{"lat":34.7389,"lng":-86.6249,"city":"Huntsville","state":"Alabama"},"35824":{"lat":34.6583,"lng":-86.7295,"city":"Huntsville","state":"Alabama"},"35893":{"lat":34.7304,"lng":-86.5861,"city":"Huntsville","state":"Alabama"},"35894":{"lat":34.734,"lng":-86.5229,"city":"Huntsville","state":"Alabama"},"35895":{"lat":34.7304,"lng":-86.5861,"city":"Huntsville","state":"Alabama"},"35896":{"lat":34.7543,"lng":-86.6546,"city":"Huntsville","state":"Alabama"},"35897":{"lat":34.734,"lng":-86.5229,"city":"Huntsville","state":"Alabama"},"35898":{"lat":34.734,"lng":-86.5229,"city":"Huntsville","state":"Alabama"},"35899":{"lat":34.7339,"lng":-86.6456,"city":"Huntsville","state":"Alabama"},"36732":{"lat":32.4908,"lng":-87.8397,"city":"Demopolis","state":"Alabama"},"36736":{"lat":32.0672,"lng":-87.7454,"city":"Dixons Mills","state":"Alabama"},"36738":{"lat":32.4233,"lng":-87.6181,"city":"Faunsdale","state":"Alabama"},"36745":{"lat":32.414,"lng":-87.8986,"city":"Jefferson","state":"Alabama"},"36748":{"lat":32.3053,"lng":-87.7954,"city":"Linden","state":"Alabama"},"36754":{"lat":32.1419,"lng":-87.6998,"city":"Magnolia","state":"Alabama"},"36763":{"lat":32.2516,"lng":-87.9494,"city":"Myrtlewood","state":"Alabama"},"36764":{"lat":32.1129,"lng":-87.9881,"city":"Nanafalia","state":"Alabama"},"36782":{"lat":32.0773,"lng":-87.9228,"city":"Sweet Water","state":"Alabama"},"36783":{"lat":32.2538,"lng":-87.5974,"city":"Thomaston","state":"Alabama"},"35543":{"lat":34.1649,"lng":-87.7396,"city":"Bear Creek","state":"Alabama"},"35548":{"lat":34.0377,"lng":-87.7563,"city":"Brilliant","state":"Alabama"},"35563":{"lat":33.9676,"lng":-87.9024,"city":"Guin","state":"Alabama"},"35564":{"lat":34.2678,"lng":-87.8608,"city":"Hackleburg","state":"Alabama"},"35570":{"lat":34.1534,"lng":-88.0085,"city":"Hamilton","state":"Alabama"},"35594":{"lat":33.9303,"lng":-87.7972,"city":"Winfield","state":"Alabama"},"35016":{"lat":34.3283,"lng":-86.4896,"city":"Arab","state":"Alabama"},"35175":{"lat":34.4093,"lng":-86.4628,"city":"Union Grove","state":"Alabama"},"35747":{"lat":34.4959,"lng":-86.259,"city":"Grant","state":"Alabama"},"35950":{"lat":34.2739,"lng":-86.2064,"city":"Albertville","state":"Alabama"},"35951":{"lat":34.3223,"lng":-86.1935,"city":"Albertville","state":"Alabama"},"35956":{"lat":34.1437,"lng":-86.148,"city":"Boaz","state":"Alabama"},"35957":{"lat":34.1921,"lng":-86.1941,"city":"Boaz","state":"Alabama"},"35964":{"lat":34.1737,"lng":-86.3236,"city":"Douglas","state":"Alabama"},"35976":{"lat":34.3449,"lng":-86.2752,"city":"Guntersville","state":"Alabama"},"35980":{"lat":34.19,"lng":-86.3173,"city":"Horton","state":"Alabama"},"36421":{"lat":31.3247,"lng":-86.5067,"city":"Andalusia","state":"Alabama"},"36505":{"lat":30.9394,"lng":-88.0159,"city":"Axis","state":"Alabama"},"36509":{"lat":30.408,"lng":-88.2507,"city":"Bayou La Batre","state":"Alabama"},"36512":{"lat":31.0105,"lng":-88.0242,"city":"Bucks","state":"Alabama"},"36521":{"lat":30.9912,"lng":-88.1311,"city":"Chunchula","state":"Alabama"},"36522":{"lat":31.0425,"lng":-88.2549,"city":"Citronelle","state":"Alabama"},"36523":{"lat":30.3903,"lng":-88.2076,"city":"Coden","state":"Alabama"},"36525":{"lat":30.9013,"lng":-88.0174,"city":"Creola","state":"Alabama"},"36528":{"lat":30.2521,"lng":-88.1096,"city":"Dauphin Island","state":"Alabama"},"36541":{"lat":30.4983,"lng":-88.3282,"city":"Grand Bay","state":"Alabama"},"36544":{"lat":30.4802,"lng":-88.2396,"city":"Irvington","state":"Alabama"},"36560":{"lat":31.0974,"lng":-88.035,"city":"Mount Vernon","state":"Alabama"},"36568":{"lat":30.5035,"lng":-88.2542,"city":"Saint Elmo","state":"Alabama"},"36571":{"lat":30.8332,"lng":-88.0934,"city":"Saraland","state":"Alabama"},"36572":{"lat":30.8516,"lng":-88.0533,"city":"Satsuma","state":"Alabama"},"36575":{"lat":30.7544,"lng":-88.2667,"city":"Semmes","state":"Alabama"},"36582":{"lat":30.5444,"lng":-88.1807,"city":"Theodore","state":"Alabama"},"36587":{"lat":30.8137,"lng":-88.3332,"city":"Wilmer","state":"Alabama"},"36590":{"lat":30.488,"lng":-88.2533,"city":"Theodore","state":"Alabama"},"36601":{"lat":30.6944,"lng":-88.0431,"city":"Mobile","state":"Alabama"},"36602":{"lat":30.6888,"lng":-88.0453,"city":"Mobile","state":"Alabama"},"36603":{"lat":30.6921,"lng":-88.0562,"city":"Mobile","state":"Alabama"},"36604":{"lat":30.682,"lng":-88.0678,"city":"Mobile","state":"Alabama"},"36605":{"lat":30.6341,"lng":-88.0846,"city":"Mobile","state":"Alabama"},"36606":{"lat":30.6729,"lng":-88.1009,"city":"Mobile","state":"Alabama"},"36607":{"lat":30.6975,"lng":-88.1029,"city":"Mobile","state":"Alabama"},"36608":{"lat":30.6817,"lng":-88.2945,"city":"Mobile","state":"Alabama"},"36609":{"lat":30.6605,"lng":-88.1618,"city":"Mobile","state":"Alabama"},"36610":{"lat":30.7309,"lng":-88.0789,"city":"Mobile","state":"Alabama"},"36611":{"lat":30.7705,"lng":-88.0781,"city":"Mobile","state":"Alabama"},"36612":{"lat":30.7518,"lng":-88.1131,"city":"Mobile","state":"Alabama"},"36613":{"lat":30.7951,"lng":-88.1823,"city":"Eight Mile","state":"Alabama"},"36615":{"lat":30.6411,"lng":-88.0622,"city":"Mobile","state":"Alabama"},"36616":{"lat":30.671,"lng":-88.1267,"city":"Mobile","state":"Alabama"},"36617":{"lat":30.7145,"lng":-88.0918,"city":"Mobile","state":"Alabama"},"36618":{"lat":30.7322,"lng":-88.1758,"city":"Mobile","state":"Alabama"},"36619":{"lat":30.5928,"lng":-88.1946,"city":"Mobile","state":"Alabama"},"36628":{"lat":30.6944,"lng":-88.0431,"city":"Mobile","state":"Alabama"},"36633":{"lat":30.6589,"lng":-88.178,"city":"Mobile","state":"Alabama"},"36640":{"lat":30.6589,"lng":-88.178,"city":"Mobile","state":"Alabama"},"36641":{"lat":30.6589,"lng":-88.178,"city":"Mobile","state":"Alabama"},"36644":{"lat":30.6944,"lng":-88.0431,"city":"Mobile","state":"Alabama"},"36652":{"lat":30.6944,"lng":-88.0431,"city":"Mobile","state":"Alabama"},"36660":{"lat":30.6589,"lng":-88.178,"city":"Mobile","state":"Alabama"},"36663":{"lat":30.6944,"lng":-88.0431,"city":"Mobile","state":"Alabama"},"36670":{"lat":30.6589,"lng":-88.178,"city":"Mobile","state":"Alabama"},"36671":{"lat":30.6589,"lng":-88.178,"city":"Mobile","state":"Alabama"},"36675":{"lat":30.6944,"lng":-88.0431,"city":"Mobile","state":"Alabama"},"36685":{"lat":30.6589,"lng":-88.178,"city":"Mobile","state":"Alabama"},"36688":{"lat":30.6962,"lng":-88.1821,"city":"Mobile","state":"Alabama"},"36689":{"lat":30.6589,"lng":-88.178,"city":"Mobile","state":"Alabama"},"36691":{"lat":30.6944,"lng":-88.0431,"city":"Mobile","state":"Alabama"},"36693":{"lat":30.6311,"lng":-88.1588,"city":"Mobile","state":"Alabama"},"36695":{"lat":30.6474,"lng":-88.2292,"city":"Mobile","state":"Alabama"},"36425":{"lat":31.7273,"lng":-87.1719,"city":"Beatrice","state":"Alabama"},"36439":{"lat":31.4279,"lng":-87.3414,"city":"Excel","state":"Alabama"},"36444":{"lat":31.7238,"lng":-87.4412,"city":"Franklin","state":"Alabama"},"36445":{"lat":31.4235,"lng":-87.3817,"city":"Frisco City","state":"Alabama"},"36449":{"lat":31.3368,"lng":-87.4258,"city":"Goodway","state":"Alabama"},"36457":{"lat":31.3612,"lng":-87.4353,"city":"Megargel","state":"Alabama"},"36458":{"lat":31.5147,"lng":-87.4084,"city":"Mexia","state":"Alabama"},"36460":{"lat":31.5153,"lng":-87.341,"city":"Monroeville","state":"Alabama"},"36461":{"lat":31.5221,"lng":-87.3411,"city":"Monroeville","state":"Alabama"},"36470":{"lat":31.5141,"lng":-87.4933,"city":"Perdue Hill","state":"Alabama"},"36471":{"lat":31.59,"lng":-87.26,"city":"Peterman","state":"Alabama"},"36480":{"lat":31.3135,"lng":-87.5705,"city":"Uriah","state":"Alabama"},"36481":{"lat":31.8085,"lng":-87.3164,"city":"Vredenburgh","state":"Alabama"},"36013":{"lat":32.2937,"lng":-85.9827,"city":"Cecil","state":"Alabama"},"36036":{"lat":32.0194,"lng":-86.1292,"city":"Grady","state":"Alabama"},"36043":{"lat":32.2243,"lng":-86.3932,"city":"Hope Hull","state":"Alabama"},"36046":{"lat":31.9657,"lng":-86.2844,"city":"Lapine","state":"Alabama"},"36052":{"lat":32.1283,"lng":-86.0413,"city":"Mathews","state":"Alabama"},"36057":{"lat":32.2334,"lng":-86.2085,"city":"Mount Meigs","state":"Alabama"},"36064":{"lat":32.3357,"lng":-86.0959,"city":"Pike Road","state":"Alabama"},"36065":{"lat":32.0726,"lng":-86.0606,"city":"Pine Level","state":"Alabama"},"36069":{"lat":32.0677,"lng":-86.2463,"city":"Ramer","state":"Alabama"},"36101":{"lat":32.357,"lng":-86.2578,"city":"Montgomery","state":"Alabama"},"36102":{"lat":32.2334,"lng":-86.2085,"city":"Montgomery","state":"Alabama"},"36103":{"lat":32.3462,"lng":-86.2873,"city":"Montgomery","state":"Alabama"},"36104":{"lat":32.373,"lng":-86.3081,"city":"Montgomery","state":"Alabama"},"36105":{"lat":32.3257,"lng":-86.3104,"city":"Montgomery","state":"Alabama"},"36106":{"lat":32.3543,"lng":-86.2673,"city":"Montgomery","state":"Alabama"},"36107":{"lat":32.3804,"lng":-86.2799,"city":"Montgomery","state":"Alabama"},"36108":{"lat":32.3417,"lng":-86.3529,"city":"Montgomery","state":"Alabama"},"36109":{"lat":32.3834,"lng":-86.2434,"city":"Montgomery","state":"Alabama"},"36110":{"lat":32.4217,"lng":-86.275,"city":"Montgomery","state":"Alabama"},"36111":{"lat":32.3374,"lng":-86.2715,"city":"Montgomery","state":"Alabama"},"36112":{"lat":32.3808,"lng":-86.3491,"city":"Montgomery","state":"Alabama"},"36113":{"lat":32.3846,"lng":-86.3039,"city":"Montgomery","state":"Alabama"},"36114":{"lat":32.404,"lng":-86.2539,"city":"Montgomery","state":"Alabama"},"36115":{"lat":32.4076,"lng":-86.2474,"city":"Montgomery","state":"Alabama"},"36116":{"lat":32.3129,"lng":-86.2421,"city":"Montgomery","state":"Alabama"},"36117":{"lat":32.3736,"lng":-86.1833,"city":"Montgomery","state":"Alabama"},"36118":{"lat":32.2334,"lng":-86.2085,"city":"Montgomery","state":"Alabama"},"36119":{"lat":32.2334,"lng":-86.2085,"city":"Montgomery","state":"Alabama"},"36120":{"lat":32.2334,"lng":-86.2085,"city":"Montgomery","state":"Alabama"},"36121":{"lat":32.2334,"lng":-86.2085,"city":"Montgomery","state":"Alabama"},"36123":{"lat":32.3668,"lng":-86.3,"city":"Montgomery","state":"Alabama"},"36124":{"lat":32.2334,"lng":-86.2085,"city":"Montgomery","state":"Alabama"},"36125":{"lat":32.2334,"lng":-86.2085,"city":"Montgomery","state":"Alabama"},"36130":{"lat":32.2334,"lng":-86.2085,"city":"Montgomery","state":"Alabama"},"36131":{"lat":32.2334,"lng":-86.2085,"city":"Montgomery","state":"Alabama"},"36132":{"lat":32.2334,"lng":-86.2085,"city":"Montgomery","state":"Alabama"},"36135":{"lat":32.2334,"lng":-86.2085,"city":"Montgomery","state":"Alabama"},"36140":{"lat":32.2334,"lng":-86.2085,"city":"Montgomery","state":"Alabama"},"36141":{"lat":32.2334,"lng":-86.2085,"city":"Montgomery","state":"Alabama"},"36142":{"lat":32.2334,"lng":-86.2085,"city":"Montgomery","state":"Alabama"},"36177":{"lat":32.2334,"lng":-86.2085,"city":"Montgomery","state":"Alabama"},"36191":{"lat":32.2334,"lng":-86.2085,"city":"Montgomery","state":"Alabama"},"35601":{"lat":34.5896,"lng":-86.9887,"city":"Decatur","state":"Alabama"},"35602":{"lat":34.6059,"lng":-86.9833,"city":"Decatur","state":"Alabama"},"35603":{"lat":34.5484,"lng":-87.0004,"city":"Decatur","state":"Alabama"},"35609":{"lat":34.6059,"lng":-86.9833,"city":"Decatur","state":"Alabama"},"35619":{"lat":34.3873,"lng":-87.1454,"city":"Danville","state":"Alabama"},"35621":{"lat":34.3323,"lng":-86.7589,"city":"Eva","state":"Alabama"},"35622":{"lat":34.3477,"lng":-86.9131,"city":"Falkville","state":"Alabama"},"35640":{"lat":34.4482,"lng":-86.9242,"city":"Hartselle","state":"Alabama"},"35670":{"lat":34.4995,"lng":-86.8009,"city":"Somerville","state":"Alabama"},"35673":{"lat":34.5918,"lng":-87.0913,"city":"Trinity","state":"Alabama"},"35699":{"lat":34.6059,"lng":-86.9833,"city":"Decatur","state":"Alabama"},"35754":{"lat":34.4996,"lng":-86.6129,"city":"Laceys Spring","state":"Alabama"},"35775":{"lat":34.542,"lng":-86.6871,"city":"Valhermoso Springs","state":"Alabama"},"36756":{"lat":32.6463,"lng":-87.3314,"city":"Marion","state":"Alabama"},"36786":{"lat":32.447,"lng":-87.4934,"city":"Uniontown","state":"Alabama"},"35442":{"lat":33.1228,"lng":-88.1667,"city":"Aliceville","state":"Alabama"},"35447":{"lat":33.2485,"lng":-88.1321,"city":"Carrollton","state":"Alabama"},"35461":{"lat":33.4157,"lng":-88.2167,"city":"Ethelsville","state":"Alabama"},"35466":{"lat":33.3469,"lng":-87.9005,"city":"Gordo","state":"Alabama"},"35471":{"lat":33.2626,"lng":-88.0885,"city":"Mc Shan","state":"Alabama"},"35481":{"lat":33.3959,"lng":-88.0203,"city":"Reform","state":"Alabama"},"36005":{"lat":31.8368,"lng":-85.7998,"city":"Banks","state":"Alabama"},"36010":{"lat":31.7013,"lng":-85.8177,"city":"Brundidge","state":"Alabama"},"36035":{"lat":31.7946,"lng":-86.1277,"city":"Goshen","state":"Alabama"},"36079":{"lat":31.7595,"lng":-86.0107,"city":"Troy","state":"Alabama"},"36081":{"lat":31.7945,"lng":-85.9655,"city":"Troy","state":"Alabama"},"36082":{"lat":31.8028,"lng":-85.9546,"city":"Troy","state":"Alabama"},"36263":{"lat":33.463,"lng":-85.334,"city":"Graham","state":"Alabama"},"36274":{"lat":33.1512,"lng":-85.3722,"city":"Roanoke","state":"Alabama"},"36276":{"lat":33.1492,"lng":-85.5513,"city":"Wadley","state":"Alabama"},"36278":{"lat":33.3019,"lng":-85.4737,"city":"Wedowee","state":"Alabama"},"36280":{"lat":33.3743,"lng":-85.3997,"city":"Woodland","state":"Alabama"},"36851":{"lat":32.1468,"lng":-85.0738,"city":"Cottonton","state":"Alabama"},"36856":{"lat":32.2965,"lng":-84.9972,"city":"Fort Mitchell","state":"Alabama"},"36858":{"lat":32.2845,"lng":-85.3029,"city":"Hatchechubbee","state":"Alabama"},"36859":{"lat":32.2298,"lng":-85.0082,"city":"Holy Trinity","state":"Alabama"},"36860":{"lat":32.2454,"lng":-85.3959,"city":"Hurtsboro","state":"Alabama"},"36867":{"lat":32.4978,"lng":-85.0234,"city":"Phenix City","state":"Alabama"},"36868":{"lat":32.4646,"lng":-85.0206,"city":"Phenix City","state":"Alabama"},"36869":{"lat":32.4204,"lng":-85.0796,"city":"Phenix City","state":"Alabama"},"36870":{"lat":32.4781,"lng":-85.124,"city":"Phenix City","state":"Alabama"},"36871":{"lat":32.1733,"lng":-85.1312,"city":"Pittsview","state":"Alabama"},"36875":{"lat":32.3053,"lng":-85.1677,"city":"Seale","state":"Alabama"},"35004":{"lat":33.6035,"lng":-86.4668,"city":"Moody","state":"Alabama"},"35052":{"lat":33.5895,"lng":-86.3923,"city":"Cook Springs","state":"Alabama"},"35054":{"lat":33.5296,"lng":-86.3007,"city":"Cropwell","state":"Alabama"},"35112":{"lat":33.6862,"lng":-86.475,"city":"Margaret","state":"Alabama"},"35120":{"lat":33.6756,"lng":-86.409,"city":"Odenville","state":"Alabama"},"35125":{"lat":33.5979,"lng":-86.3432,"city":"Pell City","state":"Alabama"},"35128":{"lat":33.5873,"lng":-86.3366,"city":"Pell City","state":"Alabama"},"35131":{"lat":33.7367,"lng":-86.1619,"city":"Ragland","state":"Alabama"},"35135":{"lat":33.6166,"lng":-86.1996,"city":"Riverside","state":"Alabama"},"35146":{"lat":33.7386,"lng":-86.4394,"city":"Springville","state":"Alabama"},"35182":{"lat":33.7068,"lng":-86.2567,"city":"Wattsville","state":"Alabama"},"35953":{"lat":33.8374,"lng":-86.2552,"city":"Ashville","state":"Alabama"},"35987":{"lat":33.9417,"lng":-86.2289,"city":"Steele","state":"Alabama"},"35007":{"lat":33.1934,"lng":-86.7944,"city":"Alabaster","state":"Alabama"},"35040":{"lat":33.1098,"lng":-86.756,"city":"Calera","state":"Alabama"},"35043":{"lat":33.2982,"lng":-86.6563,"city":"Chelsea","state":"Alabama"},"35051":{"lat":33.177,"lng":-86.6161,"city":"Columbiana","state":"Alabama"},"35078":{"lat":33.3234,"lng":-86.4424,"city":"Harpersville","state":"Alabama"},"35080":{"lat":33.2663,"lng":-86.902,"city":"Helena","state":"Alabama"},"35114":{"lat":33.2317,"lng":-86.8727,"city":"Maylene","state":"Alabama"},"35115":{"lat":33.1248,"lng":-86.8622,"city":"Montevallo","state":"Alabama"},"35124":{"lat":33.2932,"lng":-86.768,"city":"Pelham","state":"Alabama"},"35137":{"lat":33.2063,"lng":-86.7812,"city":"Saginaw","state":"Alabama"},"35143":{"lat":33.0785,"lng":-86.5536,"city":"Shelby","state":"Alabama"},"35144":{"lat":33.2293,"lng":-86.825,"city":"Siluria","state":"Alabama"},"35147":{"lat":33.4461,"lng":-86.4917,"city":"Sterrett","state":"Alabama"},"35176":{"lat":33.4807,"lng":-86.5013,"city":"Vandiver","state":"Alabama"},"35178":{"lat":33.401,"lng":-86.3994,"city":"Vincent","state":"Alabama"},"35185":{"lat":33.3356,"lng":-86.5437,"city":"Westover","state":"Alabama"},"35186":{"lat":33.2293,"lng":-86.5299,"city":"Wilsonville","state":"Alabama"},"35187":{"lat":33.081,"lng":-86.8793,"city":"Wilton","state":"Alabama"},"35242":{"lat":33.3813,"lng":-86.7046,"city":"Birmingham","state":"Alabama"},"35459":{"lat":32.755,"lng":-88.3057,"city":"Emelle","state":"Alabama"},"35460":{"lat":32.672,"lng":-88.1206,"city":"Epes","state":"Alabama"},"35464":{"lat":32.821,"lng":-88.1589,"city":"Gainesville","state":"Alabama"},"35470":{"lat":32.5843,"lng":-88.1872,"city":"Livingston","state":"Alabama"},"35477":{"lat":32.8726,"lng":-88.2374,"city":"Panola","state":"Alabama"},"36901":{"lat":32.449,"lng":-88.1336,"city":"Bellamy","state":"Alabama"},"36907":{"lat":32.411,"lng":-88.3611,"city":"Cuba","state":"Alabama"},"36925":{"lat":32.4728,"lng":-88.2683,"city":"York","state":"Alabama"},"35014":{"lat":33.404,"lng":-86.2339,"city":"Alpine","state":"Alabama"},"35032":{"lat":33.2649,"lng":-86.3364,"city":"Bon Air","state":"Alabama"},"35044":{"lat":33.2459,"lng":-86.3641,"city":"Childersburg","state":"Alabama"},"35096":{"lat":33.6059,"lng":-86.1112,"city":"Lincoln","state":"Alabama"},"35149":{"lat":33.2512,"lng":-86.2025,"city":"Sycamore","state":"Alabama"},"35150":{"lat":33.1717,"lng":-86.2713,"city":"Sylacauga","state":"Alabama"},"35151":{"lat":33.1756,"lng":-86.3574,"city":"Sylacauga","state":"Alabama"},"35160":{"lat":33.4354,"lng":-86.1134,"city":"Talladega","state":"Alabama"},"35161":{"lat":33.4202,"lng":-86.1028,"city":"Talladega","state":"Alabama"},"36268":{"lat":33.541,"lng":-85.9363,"city":"Munford","state":"Alabama"},"35010":{"lat":32.9164,"lng":-85.9368,"city":"Alexander City","state":"Alabama"},"35011":{"lat":32.9902,"lng":-85.958,"city":"Alexander City","state":"Alabama"},"36023":{"lat":32.8002,"lng":-85.8034,"city":"East Tallassee","state":"Alabama"},"36256":{"lat":33.0335,"lng":-85.7538,"city":"Daviston","state":"Alabama"},"36850":{"lat":32.7827,"lng":-85.6474,"city":"Camp Hill","state":"Alabama"},"36853":{"lat":32.8224,"lng":-85.7704,"city":"Dadeville","state":"Alabama"},"36861":{"lat":32.8797,"lng":-85.8487,"city":"Jacksons Gap","state":"Alabama"},"35401":{"lat":33.1969,"lng":-87.5627,"city":"Tuscaloosa","state":"Alabama"},"35402":{"lat":33.3066,"lng":-87.4532,"city":"Tuscaloosa","state":"Alabama"},"35403":{"lat":33.2045,"lng":-87.527,"city":"Tuscaloosa","state":"Alabama"},"35404":{"lat":33.1826,"lng":-87.4827,"city":"Tuscaloosa","state":"Alabama"},"35405":{"lat":33.1617,"lng":-87.5144,"city":"Tuscaloosa","state":"Alabama"},"35406":{"lat":33.2722,"lng":-87.536,"city":"Tuscaloosa","state":"Alabama"},"35407":{"lat":33.3066,"lng":-87.4532,"city":"Tuscaloosa","state":"Alabama"},"35440":{"lat":33.311,"lng":-87.1898,"city":"Abernant","state":"Alabama"},"35444":{"lat":33.2775,"lng":-87.309,"city":"Brookwood","state":"Alabama"},"35446":{"lat":33.2306,"lng":-87.7547,"city":"Buhl","state":"Alabama"},"35449":{"lat":33.1359,"lng":-87.3384,"city":"Coaling","state":"Alabama"},"35452":{"lat":33.2934,"lng":-87.6888,"city":"Coker","state":"Alabama"},"35453":{"lat":33.1767,"lng":-87.3871,"city":"Cottondale","state":"Alabama"},"35456":{"lat":33.0618,"lng":-87.4422,"city":"Duncanville","state":"Alabama"},"35457":{"lat":33.294,"lng":-87.7766,"city":"Echola","state":"Alabama"},"35458":{"lat":33.2562,"lng":-87.7922,"city":"Elrod","state":"Alabama"},"35463":{"lat":33.0843,"lng":-87.6975,"city":"Fosters","state":"Alabama"},"35468":{"lat":33.3407,"lng":-87.3047,"city":"Kellerman","state":"Alabama"},"35473":{"lat":33.2723,"lng":-87.5825,"city":"Northport","state":"Alabama"},"35475":{"lat":33.3992,"lng":-87.5599,"city":"Northport","state":"Alabama"},"35476":{"lat":33.2273,"lng":-87.5943,"city":"Northport","state":"Alabama"},"35478":{"lat":33.3066,"lng":-87.4532,"city":"Peterson","state":"Alabama"},"35480":{"lat":33.1274,"lng":-87.7624,"city":"Ralph","state":"Alabama"},"35482":{"lat":33.3066,"lng":-87.4532,"city":"Samantha","state":"Alabama"},"35486":{"lat":33.2098,"lng":-87.5692,"city":"Tuscaloosa","state":"Alabama"},"35487":{"lat":33.3072,"lng":-87.5859,"city":"Tuscaloosa","state":"Alabama"},"35490":{"lat":33.175,"lng":-87.2574,"city":"Vance","state":"Alabama"},"35038":{"lat":33.7079,"lng":-87.0875,"city":"Burnwell","state":"Alabama"},"35062":{"lat":33.7357,"lng":-87.0546,"city":"Dora","state":"Alabama"},"35063":{"lat":33.8256,"lng":-87.0161,"city":"Empire","state":"Alabama"},"35130":{"lat":33.6561,"lng":-87.1007,"city":"Quinton","state":"Alabama"},"35148":{"lat":33.768,"lng":-87.0445,"city":"Sumiton","state":"Alabama"},"35501":{"lat":33.8312,"lng":-87.2775,"city":"Jasper","state":"Alabama"},"35502":{"lat":33.8312,"lng":-87.2775,"city":"Jasper","state":"Alabama"},"35503":{"lat":33.9152,"lng":-87.3074,"city":"Jasper","state":"Alabama"},"35504":{"lat":33.8927,"lng":-87.1667,"city":"Jasper","state":"Alabama"},"35549":{"lat":33.9093,"lng":-87.5403,"city":"Carbon Hill","state":"Alabama"},"35550":{"lat":33.768,"lng":-87.1841,"city":"Cordova","state":"Alabama"},"35554":{"lat":33.9315,"lng":-87.6194,"city":"Eldridge","state":"Alabama"},"35560":{"lat":33.6795,"lng":-87.2374,"city":"Goodsprings","state":"Alabama"},"35573":{"lat":33.9018,"lng":-87.552,"city":"Kansas","state":"Alabama"},"35578":{"lat":33.9299,"lng":-87.4324,"city":"Nauvoo","state":"Alabama"},"35579":{"lat":33.7002,"lng":-87.3686,"city":"Oakman","state":"Alabama"},"35580":{"lat":33.7213,"lng":-87.2658,"city":"Parrish","state":"Alabama"},"35584":{"lat":33.8201,"lng":-87.0779,"city":"Sipsey","state":"Alabama"},"35587":{"lat":33.847,"lng":-87.4372,"city":"Townley","state":"Alabama"},"36513":{"lat":31.1552,"lng":-88.01,"city":"Calvert","state":"Alabama"},"36518":{"lat":31.4876,"lng":-88.2699,"city":"Chatom","state":"Alabama"},"36529":{"lat":31.2168,"lng":-88.3172,"city":"Deer Park","state":"Alabama"},"36538":{"lat":31.6468,"lng":-88.1332,"city":"Frankville","state":"Alabama"},"36539":{"lat":31.3488,"lng":-88.3766,"city":"Fruitdale","state":"Alabama"},"36548":{"lat":31.491,"lng":-87.9687,"city":"Leroy","state":"Alabama"},"36553":{"lat":31.2361,"lng":-88.0511,"city":"Mc Intosh","state":"Alabama"},"36556":{"lat":31.1913,"lng":-88.0075,"city":"Malcolm","state":"Alabama"},"36558":{"lat":31.6269,"lng":-88.3559,"city":"Millry","state":"Alabama"},"36569":{"lat":31.533,"lng":-88.0521,"city":"Saint Stephens","state":"Alabama"},"36581":{"lat":31.3696,"lng":-88.0122,"city":"Sunflower","state":"Alabama"},"36583":{"lat":31.4067,"lng":-88.1758,"city":"Tibbie","state":"Alabama"},"36584":{"lat":31.2584,"lng":-88.3865,"city":"Vinegar Bend","state":"Alabama"},"36585":{"lat":31.4102,"lng":-88.0705,"city":"Wagarville","state":"Alabama"},"36435":{"lat":31.8889,"lng":-87.3926,"city":"Coy","state":"Alabama"},"36720":{"lat":32.1585,"lng":-87.3468,"city":"Alberta","state":"Alabama"},"36722":{"lat":32.0668,"lng":-87.5597,"city":"Arlington","state":"Alabama"},"36723":{"lat":32.0779,"lng":-87.2814,"city":"Boykin","state":"Alabama"},"36726":{"lat":32.0047,"lng":-87.295,"city":"Camden","state":"Alabama"},"36728":{"lat":32.182,"lng":-87.4836,"city":"Catherine","state":"Alabama"},"36741":{"lat":32.0061,"lng":-86.9817,"city":"Furman","state":"Alabama"},"36751":{"lat":31.8504,"lng":-87.5682,"city":"Lower Peach Tree","state":"Alabama"},"36753":{"lat":32.0481,"lng":-87.2623,"city":"Mc Williams","state":"Alabama"},"36766":{"lat":31.947,"lng":-87.0745,"city":"Oak Hill","state":"Alabama"},"36768":{"lat":31.9265,"lng":-87.0047,"city":"Pine Apple","state":"Alabama"},"36769":{"lat":31.9735,"lng":-87.5771,"city":"Pine Hill","state":"Alabama"},"35540":{"lat":34.2056,"lng":-87.1948,"city":"Addison","state":"Alabama"},"35541":{"lat":34.0632,"lng":-87.1828,"city":"Arley","state":"Alabama"},"35551":{"lat":34.1701,"lng":-87.6059,"city":"Delmar","state":"Alabama"},"35553":{"lat":34.1387,"lng":-87.3974,"city":"Double Springs","state":"Alabama"},"35565":{"lat":34.2314,"lng":-87.5938,"city":"Haleyville","state":"Alabama"},"35572":{"lat":34.118,"lng":-87.2618,"city":"Houston","state":"Alabama"},"35575":{"lat":34.053,"lng":-87.5398,"city":"Lynn","state":"Alabama"},"35577":{"lat":34.0934,"lng":-87.6008,"city":"Natural Bridge","state":"Alabama"},"72003":{"lat":34.4146,"lng":-91.431,"city":"Almyra","state":"Arkansas"},"72026":{"lat":34.5095,"lng":-91.299,"city":"Casscoe","state":"Arkansas"},"72038":{"lat":34.4528,"lng":-91.2692,"city":"Crocketts Bluff","state":"Arkansas"},"72042":{"lat":34.2853,"lng":-91.3336,"city":"De Witt","state":"Arkansas"},"72048":{"lat":34.2435,"lng":-91.1398,"city":"Ethel","state":"Arkansas"},"72055":{"lat":34.1218,"lng":-91.38,"city":"Gillett","state":"Arkansas"},"72073":{"lat":34.4034,"lng":-91.679,"city":"Humphrey","state":"Arkansas"},"72140":{"lat":34.3878,"lng":-91.1463,"city":"Saint Charles","state":"Arkansas"},"72160":{"lat":34.4854,"lng":-91.5487,"city":"Stuttgart","state":"Arkansas"},"72166":{"lat":34.0893,"lng":-91.2437,"city":"Tichnor","state":"Arkansas"},"71635":{"lat":33.156,"lng":-91.9975,"city":"Crossett","state":"Arkansas"},"71642":{"lat":33.3631,"lng":-91.9088,"city":"Fountain Hill","state":"Arkansas"},"71646":{"lat":33.2058,"lng":-91.8023,"city":"Hamburg","state":"Arkansas"},"71658":{"lat":33.3075,"lng":-91.5228,"city":"Montrose","state":"Arkansas"},"71661":{"lat":33.1213,"lng":-91.5428,"city":"Parkdale","state":"Arkansas"},"71663":{"lat":33.2318,"lng":-91.5139,"city":"Portland","state":"Arkansas"},"71676":{"lat":33.0576,"lng":-91.5723,"city":"Wilmot","state":"Arkansas"},"72537":{"lat":36.4618,"lng":-92.2284,"city":"Gamaliel","state":"Arkansas"},"72544":{"lat":36.4105,"lng":-92.1951,"city":"Henderson","state":"Arkansas"},"72617":{"lat":36.0068,"lng":-92.3917,"city":"Big Flat","state":"Arkansas"},"72623":{"lat":36.4724,"lng":-92.3296,"city":"Clarkridge","state":"Arkansas"},"72626":{"lat":36.2712,"lng":-92.5354,"city":"Cotter","state":"Arkansas"},"72635":{"lat":36.3175,"lng":-92.4736,"city":"Gassville","state":"Arkansas"},"72642":{"lat":36.373,"lng":-92.5422,"city":"Lakeview","state":"Arkansas"},"72651":{"lat":36.3933,"lng":-92.4881,"city":"Midway","state":"Arkansas"},"72653":{"lat":36.3312,"lng":-92.3753,"city":"Mountain Home","state":"Arkansas"},"72654":{"lat":36.3353,"lng":-92.3852,"city":"Mountain Home","state":"Arkansas"},"72658":{"lat":36.2066,"lng":-92.273,"city":"Norfork","state":"Arkansas"},"72659":{"lat":36.2095,"lng":-92.2843,"city":"Norfork","state":"Arkansas"},"72711":{"lat":36.4047,"lng":-94.0713,"city":"Avoca","state":"Arkansas"},"72712":{"lat":36.3577,"lng":-94.2224,"city":"Bentonville","state":"Arkansas"},"72713":{"lat":36.3115,"lng":-94.3503,"city":"Bentonville","state":"Arkansas"},"72714":{"lat":36.4676,"lng":-94.2166,"city":"Bella Vista","state":"Arkansas"},"72715":{"lat":36.4677,"lng":-94.3209,"city":"Bella Vista","state":"Arkansas"},"72716":{"lat":36.3729,"lng":-94.2088,"city":"Bentonville","state":"Arkansas"},"72718":{"lat":36.2738,"lng":-94.2183,"city":"Cave Springs","state":"Arkansas"},"72719":{"lat":36.367,"lng":-94.3089,"city":"Centerton","state":"Arkansas"},"72722":{"lat":36.3347,"lng":-94.4534,"city":"Decatur","state":"Arkansas"},"72732":{"lat":36.4288,"lng":-93.9512,"city":"Garfield","state":"Arkansas"},"72733":{"lat":36.4864,"lng":-93.9277,"city":"Gateway","state":"Arkansas"},"72734":{"lat":36.2652,"lng":-94.4751,"city":"Gentry","state":"Arkansas"},"72736":{"lat":36.4155,"lng":-94.4779,"city":"Gravette","state":"Arkansas"},"72739":{"lat":36.4416,"lng":-94.339,"city":"Hiwasse","state":"Arkansas"},"72745":{"lat":36.2554,"lng":-94.1308,"city":"Lowell","state":"Arkansas"},"72747":{"lat":36.3811,"lng":-94.5783,"city":"Maysville","state":"Arkansas"},"72751":{"lat":36.4539,"lng":-94.118,"city":"Pea Ridge","state":"Arkansas"},"72756":{"lat":36.3363,"lng":-94.1148,"city":"Rogers","state":"Arkansas"},"72757":{"lat":36.332,"lng":-94.1185,"city":"Rogers","state":"Arkansas"},"72758":{"lat":36.3169,"lng":-94.1545,"city":"Rogers","state":"Arkansas"},"72761":{"lat":36.18,"lng":-94.528,"city":"Siloam Springs","state":"Arkansas"},"72768":{"lat":36.4794,"lng":-94.4521,"city":"Sulphur Springs","state":"Arkansas"},"72260":{"lat":34.7399,"lng":-92.34,"city":"Little Rock","state":"Arkansas"},"72601":{"lat":36.2417,"lng":-93.1062,"city":"Harrison","state":"Arkansas"},"72602":{"lat":36.2298,"lng":-93.1077,"city":"Harrison","state":"Arkansas"},"72611":{"lat":36.2998,"lng":-93.2792,"city":"Alpena","state":"Arkansas"},"72615":{"lat":36.3083,"lng":-93.0321,"city":"Bergman","state":"Arkansas"},"72630":{"lat":36.4645,"lng":-92.9202,"city":"Diamond City","state":"Arkansas"},"72633":{"lat":36.1534,"lng":-92.915,"city":"Everton","state":"Arkansas"},"72644":{"lat":36.3848,"lng":-93.0039,"city":"Lead Hill","state":"Arkansas"},"72662":{"lat":36.4612,"lng":-93.1888,"city":"Omaha","state":"Arkansas"},"72682":{"lat":36.1351,"lng":-92.7541,"city":"Valley Springs","state":"Arkansas"},"71631":{"lat":33.5497,"lng":-92.2604,"city":"Banks","state":"Arkansas"},"71647":{"lat":33.39,"lng":-92.156,"city":"Hermitage","state":"Arkansas"},"71651":{"lat":33.3889,"lng":-92.2966,"city":"Jersey","state":"Arkansas"},"71671":{"lat":33.614,"lng":-92.0778,"city":"Warren","state":"Arkansas"},"71744":{"lat":33.5376,"lng":-92.5295,"city":"Hampton","state":"Arkansas"},"71745":{"lat":33.5101,"lng":-92.3988,"city":"Harrell","state":"Arkansas"},"71766":{"lat":33.7768,"lng":-92.4862,"city":"Thornton","state":"Arkansas"},"72613":{"lat":36.4311,"lng":-93.6994,"city":"Beaver","state":"Arkansas"},"72616":{"lat":36.3519,"lng":-93.5587,"city":"Berryville","state":"Arkansas"},"72631":{"lat":36.435,"lng":-93.7673,"city":"Eureka Springs","state":"Arkansas"},"72632":{"lat":36.4175,"lng":-93.7379,"city":"Eureka Springs","state":"Arkansas"},"72638":{"lat":36.3224,"lng":-93.4059,"city":"Green Forest","state":"Arkansas"},"72660":{"lat":36.4613,"lng":-93.4321,"city":"Oak Grove","state":"Arkansas"},"71638":{"lat":33.5241,"lng":-91.4394,"city":"Dermott","state":"Arkansas"},"71640":{"lat":33.1213,"lng":-91.2716,"city":"Eudora","state":"Arkansas"},"71653":{"lat":33.3274,"lng":-91.2825,"city":"Lake Village","state":"Arkansas"},"71721":{"lat":33.8887,"lng":-93.2041,"city":"Beirne","state":"Arkansas"},"71728":{"lat":34.0103,"lng":-93.0976,"city":"Curtis","state":"Arkansas"},"71743":{"lat":33.9125,"lng":-93.1417,"city":"Gurdon","state":"Arkansas"},"71772":{"lat":33.8309,"lng":-93.1263,"city":"Whelen Springs","state":"Arkansas"},"71920":{"lat":34.229,"lng":-93.3791,"city":"Alpine","state":"Arkansas"},"71921":{"lat":34.2594,"lng":-93.4206,"city":"Amity","state":"Arkansas"},"71923":{"lat":34.1153,"lng":-93.069,"city":"Arkadelphia","state":"Arkansas"},"71962":{"lat":34.0551,"lng":-93.2897,"city":"Okolona","state":"Arkansas"},"71998":{"lat":34.1209,"lng":-93.0538,"city":"Arkadelphia","state":"Arkansas"},"71999":{"lat":34.1209,"lng":-93.0538,"city":"Arkadelphia","state":"Arkansas"},"72422":{"lat":36.4155,"lng":-90.587,"city":"Corning","state":"Arkansas"},"72424":{"lat":36.3897,"lng":-90.7231,"city":"Datto","state":"Arkansas"},"72430":{"lat":36.3348,"lng":-90.2253,"city":"Greenway","state":"Arkansas"},"72435":{"lat":36.3176,"lng":-90.599,"city":"Knobel","state":"Arkansas"},"72441":{"lat":36.437,"lng":-90.3837,"city":"Mc Dougal","state":"Arkansas"},"72453":{"lat":36.283,"lng":-90.6702,"city":"Peach Orchard","state":"Arkansas"},"72454":{"lat":36.387,"lng":-90.1926,"city":"Piggott","state":"Arkansas"},"72456":{"lat":36.4317,"lng":-90.2751,"city":"Pollard","state":"Arkansas"},"72461":{"lat":36.2672,"lng":-90.2702,"city":"Rector","state":"Arkansas"},"72464":{"lat":36.4534,"lng":-90.1454,"city":"Saint Francis","state":"Arkansas"},"72470":{"lat":36.4536,"lng":-90.7281,"city":"Success","state":"Arkansas"},"72044":{"lat":35.6321,"lng":-92.157,"city":"Edgemont","state":"Arkansas"},"72067":{"lat":35.5685,"lng":-92.1341,"city":"Higden","state":"Arkansas"},"72130":{"lat":35.6674,"lng":-92.0933,"city":"Prim","state":"Arkansas"},"72131":{"lat":35.405,"lng":-92.1333,"city":"Quitman","state":"Arkansas"},"72179":{"lat":35.5106,"lng":-91.8648,"city":"Wilburn","state":"Arkansas"},"72523":{"lat":35.6414,"lng":-91.8333,"city":"Concord","state":"Arkansas"},"72530":{"lat":35.6616,"lng":-91.9398,"city":"Drasco","state":"Arkansas"},"72543":{"lat":35.5103,"lng":-92.0392,"city":"Heber Springs","state":"Arkansas"},"72545":{"lat":35.5352,"lng":-92.0213,"city":"Heber Springs","state":"Arkansas"},"72546":{"lat":35.5816,"lng":-91.9305,"city":"Ida","state":"Arkansas"},"72581":{"lat":35.547,"lng":-91.9704,"city":"Tumbling Shoals","state":"Arkansas"},"71652":{"lat":33.86,"lng":-92.3014,"city":"Kingsland","state":"Arkansas"},"71660":{"lat":33.7588,"lng":-92.1939,"city":"New Edinburg","state":"Arkansas"},"71665":{"lat":33.9453,"lng":-92.1188,"city":"Rison","state":"Arkansas"},"71740":{"lat":33.0891,"lng":-93.1987,"city":"Emerson","state":"Arkansas"},"71752":{"lat":33.3622,"lng":-93.193,"city":"Mc Neil","state":"Arkansas"},"71753":{"lat":33.2647,"lng":-93.2392,"city":"Magnolia","state":"Arkansas"},"71754":{"lat":33.2426,"lng":-93.23,"city":"Magnolia","state":"Arkansas"},"71770":{"lat":33.36,"lng":-93.2949,"city":"Waldo","state":"Arkansas"},"71861":{"lat":33.108,"lng":-93.446,"city":"Taylor","state":"Arkansas"},"72027":{"lat":35.3981,"lng":-92.5582,"city":"Center Ridge","state":"Arkansas"},"72030":{"lat":35.3955,"lng":-92.702,"city":"Cleveland","state":"Arkansas"},"72063":{"lat":35.2907,"lng":-92.7783,"city":"Hattieville","state":"Arkansas"},"72080":{"lat":35.5699,"lng":-92.8251,"city":"Jerusalem","state":"Arkansas"},"72107":{"lat":35.1356,"lng":-92.5498,"city":"Menifee","state":"Arkansas"},"72110":{"lat":35.1692,"lng":-92.7354,"city":"Morrilton","state":"Arkansas"},"72127":{"lat":35.1575,"lng":-92.6204,"city":"Plumerville","state":"Arkansas"},"72156":{"lat":35.2701,"lng":-92.6754,"city":"Solgohachia","state":"Arkansas"},"72157":{"lat":35.2749,"lng":-92.5457,"city":"Springfield","state":"Arkansas"},"72401":{"lat":35.833,"lng":-90.6965,"city":"Jonesboro","state":"Arkansas"},"72402":{"lat":35.8088,"lng":-90.6529,"city":"Jonesboro","state":"Arkansas"},"72403":{"lat":35.8305,"lng":-90.7039,"city":"Jonesboro","state":"Arkansas"},"72404":{"lat":35.7792,"lng":-90.766,"city":"Jonesboro","state":"Arkansas"},"72405":{"lat":35.7792,"lng":-90.766,"city":"Jonesboro","state":"Arkansas"},"72411":{"lat":35.7456,"lng":-90.5507,"city":"Bay","state":"Arkansas"},"72414":{"lat":35.8368,"lng":-90.4005,"city":"Black Oak","state":"Arkansas"},"72416":{"lat":35.9086,"lng":-90.7848,"city":"Bono","state":"Arkansas"},"72417":{"lat":35.9165,"lng":-90.5762,"city":"Brookland","state":"Arkansas"},"72419":{"lat":35.759,"lng":-90.3358,"city":"Caraway","state":"Arkansas"},"72421":{"lat":35.8301,"lng":-90.941,"city":"Cash","state":"Arkansas"},"72427":{"lat":35.864,"lng":-90.9428,"city":"Egypt","state":"Arkansas"},"72437":{"lat":35.8171,"lng":-90.4423,"city":"Lake City","state":"Arkansas"},"72447":{"lat":35.9002,"lng":-90.3437,"city":"Monette","state":"Arkansas"},"72467":{"lat":35.8422,"lng":-90.6735,"city":"State University","state":"Arkansas"},"72921":{"lat":35.5,"lng":-94.2073,"city":"Alma","state":"Arkansas"},"72932":{"lat":35.603,"lng":-94.3749,"city":"Cedarville","state":"Arkansas"},"72934":{"lat":35.6898,"lng":-94.202,"city":"Chester","state":"Arkansas"},"72935":{"lat":35.4923,"lng":-94.1377,"city":"Dyer","state":"Arkansas"},"72946":{"lat":35.6464,"lng":-94.1497,"city":"Mountainburg","state":"Arkansas"},"72947":{"lat":35.5172,"lng":-93.9885,"city":"Mulberry","state":"Arkansas"},"72948":{"lat":35.6743,"lng":-94.4124,"city":"Natural Dam","state":"Arkansas"},"72952":{"lat":35.5468,"lng":-94.2913,"city":"Rudy","state":"Arkansas"},"72955":{"lat":35.5748,"lng":-94.4349,"city":"Uniontown","state":"Arkansas"},"72956":{"lat":35.454,"lng":-94.3278,"city":"Van Buren","state":"Arkansas"},"72957":{"lat":35.4368,"lng":-94.3483,"city":"Van Buren","state":"Arkansas"},"72301":{"lat":35.1484,"lng":-90.1779,"city":"West Memphis","state":"Arkansas"},"72303":{"lat":35.1465,"lng":-90.1845,"city":"West Memphis","state":"Arkansas"},"72325":{"lat":35.3093,"lng":-90.2362,"city":"Clarkedale","state":"Arkansas"},"72327":{"lat":35.2119,"lng":-90.3351,"city":"Crawfordsville","state":"Arkansas"},"72331":{"lat":35.2799,"lng":-90.4503,"city":"Earle","state":"Arkansas"},"72332":{"lat":35.1042,"lng":-90.3133,"city":"Edmondson","state":"Arkansas"},"72339":{"lat":35.4057,"lng":-90.2714,"city":"Gilmore","state":"Arkansas"},"72364":{"lat":35.2077,"lng":-90.1989,"city":"Marion","state":"Arkansas"},"72376":{"lat":35.0834,"lng":-90.255,"city":"Proctor","state":"Arkansas"},"72384":{"lat":35.3439,"lng":-90.2978,"city":"Turrell","state":"Arkansas"},"72324":{"lat":35.3991,"lng":-90.7613,"city":"Cherry Valley","state":"Arkansas"},"72347":{"lat":35.3995,"lng":-90.9823,"city":"Hickory Ridge","state":"Arkansas"},"72373":{"lat":35.2586,"lng":-90.5564,"city":"Parkin","state":"Arkansas"},"72387":{"lat":35.3245,"lng":-90.7712,"city":"Vanndale","state":"Arkansas"},"72396":{"lat":35.233,"lng":-90.793,"city":"Wynne","state":"Arkansas"},"71725":{"lat":34.0751,"lng":-92.5554,"city":"Carthage","state":"Arkansas"},"71742":{"lat":33.8176,"lng":-92.4225,"city":"Fordyce","state":"Arkansas"},"71748":{"lat":33.9118,"lng":-92.4246,"city":"Ivan","state":"Arkansas"},"71763":{"lat":33.9143,"lng":-92.8532,"city":"Sparkman","state":"Arkansas"},"71630":{"lat":33.6143,"lng":-91.2325,"city":"Arkansas City","state":"Arkansas"},"71639":{"lat":33.8921,"lng":-91.4861,"city":"Dumas","state":"Arkansas"},"71654":{"lat":33.6297,"lng":-91.3928,"city":"Mc Gehee","state":"Arkansas"},"71662":{"lat":33.842,"lng":-91.5022,"city":"Pickens","state":"Arkansas"},"71666":{"lat":33.7609,"lng":-91.2757,"city":"Rohwer","state":"Arkansas"},"71670":{"lat":33.6981,"lng":-91.4433,"city":"Tillar","state":"Arkansas"},"71674":{"lat":33.8907,"lng":-91.2815,"city":"Watson","state":"Arkansas"},"72379":{"lat":34.0665,"lng":-91.0071,"city":"Snow Lake","state":"Arkansas"},"71655":{"lat":33.625,"lng":-91.7948,"city":"Monticello","state":"Arkansas"},"71656":{"lat":33.629,"lng":-91.791,"city":"Monticello","state":"Arkansas"},"71657":{"lat":33.629,"lng":-91.791,"city":"Monticello","state":"Arkansas"},"71675":{"lat":33.6213,"lng":-91.9257,"city":"Wilmar","state":"Arkansas"},"71677":{"lat":33.7471,"lng":-91.4649,"city":"Winchester","state":"Arkansas"},"72032":{"lat":35.0842,"lng":-92.4236,"city":"Conway","state":"Arkansas"},"72033":{"lat":35.1053,"lng":-92.3549,"city":"Conway","state":"Arkansas"},"72034":{"lat":35.0823,"lng":-92.4683,"city":"Conway","state":"Arkansas"},"72035":{"lat":35.1053,"lng":-92.3549,"city":"Conway","state":"Arkansas"},"72039":{"lat":35.3673,"lng":-92.4096,"city":"Damascus","state":"Arkansas"},"72047":{"lat":35.2087,"lng":-92.2123,"city":"Enola","state":"Arkansas"},"72058":{"lat":35.2295,"lng":-92.3578,"city":"Greenbrier","state":"Arkansas"},"72061":{"lat":35.3239,"lng":-92.2878,"city":"Guy","state":"Arkansas"},"72106":{"lat":34.9669,"lng":-92.4001,"city":"Mayflower","state":"Arkansas"},"72111":{"lat":35.2265,"lng":-92.124,"city":"Mount Vernon","state":"Arkansas"},"72173":{"lat":35.0719,"lng":-92.1832,"city":"Vilonia","state":"Arkansas"},"72181":{"lat":35.1645,"lng":-92.453,"city":"Wooster","state":"Arkansas"},"72820":{"lat":35.41,"lng":-93.7286,"city":"Alix","state":"Arkansas"},"72821":{"lat":35.4346,"lng":-93.7598,"city":"Altus","state":"Arkansas"},"72928":{"lat":35.2971,"lng":-93.9454,"city":"Branch","state":"Arkansas"},"72930":{"lat":35.4252,"lng":-94.0409,"city":"Cecil","state":"Arkansas"},"72933":{"lat":35.3115,"lng":-94.0337,"city":"Charleston","state":"Arkansas"},"72949":{"lat":35.5246,"lng":-93.8374,"city":"Ozark","state":"Arkansas"},"72515":{"lat":36.2901,"lng":-92.055,"city":"Bexar","state":"Arkansas"},"72520":{"lat":36.4025,"lng":-91.7262,"city":"Camp","state":"Arkansas"},"72531":{"lat":36.3238,"lng":-92.0934,"city":"Elizabeth","state":"Arkansas"},"72538":{"lat":36.4364,"lng":-92.0995,"city":"Gepp","state":"Arkansas"},"72539":{"lat":36.2942,"lng":-91.7474,"city":"Glencoe","state":"Arkansas"},"72554":{"lat":36.4076,"lng":-91.5757,"city":"Mammoth Spring","state":"Arkansas"},"72576":{"lat":36.3766,"lng":-91.8759,"city":"Salem","state":"Arkansas"},"72578":{"lat":36.4747,"lng":-91.8891,"city":"Sturkie","state":"Arkansas"},"72583":{"lat":36.3924,"lng":-91.9932,"city":"Viola","state":"Arkansas"},"71901":{"lat":34.5268,"lng":-92.9587,"city":"Hot Springs National Park","state":"Arkansas"},"71902":{"lat":34.5814,"lng":-93.0994,"city":"Hot Springs National Park","state":"Arkansas"},"71903":{"lat":34.5814,"lng":-93.0994,"city":"Hot Springs National Park","state":"Arkansas"},"71909":{"lat":34.6484,"lng":-92.983,"city":"Hot Springs Village","state":"Arkansas"},"71910":{"lat":34.672,"lng":-92.9988,"city":"Hot Springs Village","state":"Arkansas"},"71913":{"lat":34.5317,"lng":-93.0638,"city":"Hot Springs National Park","state":"Arkansas"},"71914":{"lat":34.5137,"lng":-92.9685,"city":"Hot Springs National Park","state":"Arkansas"},"71949":{"lat":34.7094,"lng":-93.0382,"city":"Jessieville","state":"Arkansas"},"71956":{"lat":34.5976,"lng":-93.1539,"city":"Mountain Pine","state":"Arkansas"},"71964":{"lat":34.4351,"lng":-93.242,"city":"Pearcy","state":"Arkansas"},"71968":{"lat":34.515,"lng":-93.2897,"city":"Royal","state":"Arkansas"},"72087":{"lat":34.5562,"lng":-92.834,"city":"Lonsdale","state":"Arkansas"},"72057":{"lat":34.1309,"lng":-92.3109,"city":"Grapevine","state":"Arkansas"},"72084":{"lat":34.1856,"lng":-92.5979,"city":"Leola","state":"Arkansas"},"72128":{"lat":34.3023,"lng":-92.6095,"city":"Poyen","state":"Arkansas"},"72129":{"lat":34.3079,"lng":-92.5131,"city":"Prattsville","state":"Arkansas"},"72150":{"lat":34.3165,"lng":-92.3657,"city":"Sheridan","state":"Arkansas"},"72412":{"lat":36.1281,"lng":-90.6914,"city":"Beech Grove","state":"Arkansas"},"72425":{"lat":36.1995,"lng":-90.7345,"city":"Delaplaine","state":"Arkansas"},"72436":{"lat":36.2359,"lng":-90.4811,"city":"Lafe","state":"Arkansas"},"72443":{"lat":36.1951,"lng":-90.3837,"city":"Marmaduke","state":"Arkansas"},"72450":{"lat":36.06,"lng":-90.5251,"city":"Paragould","state":"Arkansas"},"72451":{"lat":36.0584,"lng":-90.4973,"city":"Paragould","state":"Arkansas"},"72474":{"lat":36.0413,"lng":-90.6718,"city":"Walcott","state":"Arkansas"},"71801":{"lat":33.6736,"lng":-93.6068,"city":"Hope","state":"Arkansas"},"71802":{"lat":33.6671,"lng":-93.5916,"city":"Hope","state":"Arkansas"},"71825":{"lat":33.8718,"lng":-93.5771,"city":"Blevins","state":"Arkansas"},"71831":{"lat":33.7935,"lng":-93.807,"city":"Columbus","state":"Arkansas"},"71838":{"lat":33.6299,"lng":-93.8086,"city":"Fulton","state":"Arkansas"},"71847":{"lat":33.923,"lng":-93.6266,"city":"Mc Caskill","state":"Arkansas"},